[
  {"iata":"ATL","icao":"KATL","name":"Hartsfield-Jackson Atlanta International","city":"Atlanta","state":"GA","lat":33.6407,"lng":-84.4277,"timezone":"America/New_York","size":"large_hub","annual_pax":93700000},
  {"iata":"DFW","icao":"KDFW","name":"Dallas/Fort Worth International","city":"Dallas-Fort Worth","state":"TX","lat":32.8998,"lng":-97.0403,"timezone":"America/Chicago","size":"large_hub","annual_pax":73400000},
  {"iata":"DEN","icao":"KDEN","name":"Denver International","city":"Denver","state":"CO","lat":39.8561,"lng":-104.6737,"timezone":"America/Denver","size":"large_hub","annual_pax":69000000},
  {"iata":"ORD","icao":"KORD","name":"O'Hare International","city":"Chicago","state":"IL","lat":41.9742,"lng":-87.9073,"timezone":"America/Chicago","size":"large_hub","annual_pax":67800000},
  {"iata":"LAX","icao":"KLAX","name":"Los Angeles International","city":"Los Angeles","state":"CA","lat":33.9425,"lng":-118.4081,"timezone":"America/Los_Angeles","size":"large_hub","annual_pax":65700000},
  {"iata":"JFK","icao":"KJFK","name":"John F. Kennedy International","city":"New York","state":"NY","lat":40.6413,"lng":-73.7781,"timezone":"America/New_York","size":"large_hub","annual_pax":62500000},
  {"iata":"SFO","icao":"KSFO","name":"San Francisco International","city":"San Francisco","state":"CA","lat":37.6213,"lng":-122.3790,"timezone":"America/Los_Angeles","size":"large_hub","annual_pax":57000000},
  {"iata":"SEA","icao":"KSEA","name":"Seattle-Tacoma International","city":"Seattle","state":"WA","lat":47.4502,"lng":-122.3088,"timezone":"America/Los_Angeles","size":"large_hub","annual_pax":50000000},
  {"iata":"MCO","icao":"KMCO","name":"Orlando International","city":"Orlando","state":"FL","lat":28.4312,"lng":-81.3081,"timezone":"America/New_York","size":"large_hub","annual_pax":49900000},
  {"iata":"EWR","icao":"KEWR","name":"Newark Liberty International","city":"Newark","state":"NJ","lat":40.6895,"lng":-74.1745,"timezone":"America/New_York","size":"large_hub","annual_pax":46300000},
  {"iata":"CLT","icao":"KCLT","name":"Charlotte Douglas International","city":"Charlotte","state":"NC","lat":35.2140,"lng":-80.9431,"timezone":"America/New_York","size":"large_hub","annual_pax":45800000},
  {"iata":"PHX","icao":"KPHX","name":"Phoenix Sky Harbor International","city":"Phoenix","state":"AZ","lat":33.4373,"lng":-112.0078,"timezone":"America/Phoenix","size":"large_hub","annual_pax":44600000},
  {"iata":"IAH","icao":"KIAH","name":"George Bush Intercontinental","city":"Houston","state":"TX","lat":29.9902,"lng":-95.3368,"timezone":"America/Chicago","size":"large_hub","annual_pax":43800000},
  {"iata":"MIA","icao":"KMIA","name":"Miami International","city":"Miami","state":"FL","lat":25.7959,"lng":-80.2870,"timezone":"America/New_York","size":"large_hub","annual_pax":42000000},
  {"iata":"LAS","icao":"KLAS","name":"Harry Reid International","city":"Las Vegas","state":"NV","lat":36.0840,"lng":-115.1537,"timezone":"America/Los_Angeles","size":"large_hub","annual_pax":41700000},
  {"iata":"MSP","icao":"KMSP","name":"Minneapolis-Saint Paul International","city":"Minneapolis","state":"MN","lat":44.8848,"lng":-93.2223,"timezone":"America/Chicago","size":"large_hub","annual_pax":39800000},
  {"iata":"BOS","icao":"KBOS","name":"Boston Logan International","city":"Boston","state":"MA","lat":42.3656,"lng":-71.0096,"timezone":"America/New_York","size":"large_hub","annual_pax":39500000},
  {"iata":"DTW","icao":"KDTW","name":"Detroit Metropolitan Wayne County","city":"Detroit","state":"MI","lat":42.2124,"lng":-83.3534,"timezone":"America/New_York","size":"large_hub","annual_pax":36000000},
  {"iata":"FLL","icao":"KFLL","name":"Fort Lauderdale-Hollywood International","city":"Fort Lauderdale","state":"FL","lat":26.0742,"lng":-80.1506,"timezone":"America/New_York","size":"large_hub","annual_pax":35800000},
  {"iata":"PHL","icao":"KPHL","name":"Philadelphia International","city":"Philadelphia","state":"PA","lat":39.8744,"lng":-75.2424,"timezone":"America/New_York","size":"large_hub","annual_pax":33500000},
  {"iata":"LGA","icao":"KLGA","name":"LaGuardia","city":"New York","state":"NY","lat":40.7769,"lng":-73.8740,"timezone":"America/New_York","size":"large_hub","annual_pax":33000000},
  {"iata":"BWI","icao":"KBWI","name":"Baltimore/Washington International","city":"Baltimore","state":"MD","lat":39.1754,"lng":-76.6684,"timezone":"America/New_York","size":"large_hub","annual_pax":27000000},
  {"iata":"SLC","icao":"KSLC","name":"Salt Lake City International","city":"Salt Lake City","state":"UT","lat":40.7899,"lng":-111.9791,"timezone":"America/Denver","size":"large_hub","annual_pax":26500000},
  {"iata":"DCA","icao":"KDCA","name":"Ronald Reagan Washington National","city":"Washington","state":"DC","lat":38.8512,"lng":-77.0402,"timezone":"America/New_York","size":"large_hub","annual_pax":25000000},
  {"iata":"SAN","icao":"KSAN","name":"San Diego International","city":"San Diego","state":"CA","lat":32.7338,"lng":-117.1933,"timezone":"America/Los_Angeles","size":"large_hub","annual_pax":25000000},
  {"iata":"IAD","icao":"KIAD","name":"Washington Dulles International","city":"Washington","state":"DC","lat":38.9531,"lng":-77.4565,"timezone":"America/New_York","size":"large_hub","annual_pax":24000000},
  {"iata":"TPA","icao":"KTPA","name":"Tampa International","city":"Tampa","state":"FL","lat":27.9756,"lng":-82.5333,"timezone":"America/New_York","size":"large_hub","annual_pax":23500000},
  {"iata":"MDW","icao":"KMDW","name":"Chicago Midway International","city":"Chicago","state":"IL","lat":41.7868,"lng":-87.7522,"timezone":"America/Chicago","size":"large_hub","annual_pax":22000000},
  {"iata":"PDX","icao":"KPDX","name":"Portland International","city":"Portland","state":"OR","lat":45.5898,"lng":-122.5951,"timezone":"America/Los_Angeles","size":"large_hub","annual_pax":21000000},
  {"iata":"HNL","icao":"PHNL","name":"Daniel K. Inouye International","city":"Honolulu","state":"HI","lat":21.3187,"lng":-157.9225,"timezone":"Pacific/Honolulu","size":"large_hub","annual_pax":20000000}
]
