[
  {
    "iata": "ATL",
    "icao": "KATL",
    "name": "Hartsfield-Jackson Atlanta International",
    "city": "Atlanta",
    "state": "GA",
    "lat": 33.6407,
    "lng": -84.4277,
    "timezone": "America/New_York",
    "size": "large_hub",
    "annual_pax": 93700000
  },
  {
    "iata": "DFW",
    "icao": "KDFW",
    "name": "Dallas/Fort Worth International",
    "city": "Dallas-Fort Worth",
    "state": "TX",
    "lat": 32.8998,
    "lng": -97.0403,
    "timezone": "America/Chicago",
    "size": "large_hub",
    "annual_pax": 73400000
  },
  {
    "iata": "DEN",
    "icao": "KDEN",
    "name": "Denver International",
    "city": "Denver",
    "state": "CO",
    "lat": 39.8561,
    "lng": -104.6737,
    "timezone": "America/Denver",
    "size": "large_hub",
    "annual_pax": 69000000
  },
  {
    "iata": "ORD",
    "icao": "KORD",
    "name": "O'Hare International",
    "city": "Chicago",
    "state": "IL",
    "lat": 41.9742,
    "lng": -87.9073,
    "timezone": "America/Chicago",
    "size": "large_hub",
    "annual_pax": 67800000
  },
  {
    "iata": "LAX",
    "icao": "KLAX",
    "name": "Los Angeles International",
    "city": "Los Angeles",
    "state": "CA",
    "lat": 33.9425,
    "lng": -118.4081,
    "timezone": "America/Los_Angeles",
    "size": "large_hub",
    "annual_pax": 65700000
  },
  {
    "iata": "JFK",
    "icao": "KJFK",
    "name": "John F. Kennedy International",
    "city": "New York",
    "state": "NY",
    "lat": 40.6413,
    "lng": -73.7781,
    "timezone": "America/New_York",
    "size": "large_hub",
    "annual_pax": 62500000
  },
  {
    "iata": "SFO",
    "icao": "KSFO",
    "name": "San Francisco International",
    "city": "San Francisco",
    "state": "CA",
    "lat": 37.6213,
    "lng": -122.379,
    "timezone": "America/Los_Angeles",
    "size": "large_hub",
    "annual_pax": 57000000
  },
  {
    "iata": "SEA",
    "icao": "KSEA",
    "name": "Seattle-Tacoma International",
    "city": "Seattle",
    "state": "WA",
    "lat": 47.4502,
    "lng": -122.3088,
    "timezone": "America/Los_Angeles",
    "size": "large_hub",
    "annual_pax": 50000000
  },
  {
    "iata": "MCO",
    "icao": "KMCO",
    "name": "Orlando International",
    "city": "Orlando",
    "state": "FL",
    "lat": 28.4312,
    "lng": -81.3081,
    "timezone": "America/New_York",
    "size": "large_hub",
    "annual_pax": 49900000
  },
  {
    "iata": "EWR",
    "icao": "KEWR",
    "name": "Newark Liberty International",
    "city": "Newark",
    "state": "NJ",
    "lat": 40.6895,
    "lng": -74.1745,
    "timezone": "America/New_York",
    "size": "large_hub",
    "annual_pax": 46300000
  },
  {
    "iata": "CLT",
    "icao": "KCLT",
    "name": "Charlotte Douglas International",
    "city": "Charlotte",
    "state": "NC",
    "lat": 35.214,
    "lng": -80.9431,
    "timezone": "America/New_York",
    "size": "large_hub",
    "annual_pax": 45800000
  },
  {
    "iata": "PHX",
    "icao": "KPHX",
    "name": "Phoenix Sky Harbor International",
    "city": "Phoenix",
    "state": "AZ",
    "lat": 33.4373,
    "lng": -112.0078,
    "timezone": "America/Los_Angeles",
    "size": "large_hub",
    "annual_pax": 44600000
  },
  {
    "iata": "IAH",
    "icao": "KIAH",
    "name": "George Bush Intercontinental",
    "city": "Houston",
    "state": "TX",
    "lat": 29.9902,
    "lng": -95.3368,
    "timezone": "America/Chicago",
    "size": "large_hub",
    "annual_pax": 43800000
  },
  {
    "iata": "MIA",
    "icao": "KMIA",
    "name": "Miami International",
    "city": "Miami",
    "state": "FL",
    "lat": 25.7959,
    "lng": -80.287,
    "timezone": "America/New_York",
    "size": "large_hub",
    "annual_pax": 42000000
  },
  {
    "iata": "LAS",
    "icao": "KLAS",
    "name": "Harry Reid International",
    "city": "Las Vegas",
    "state": "NV",
    "lat": 36.084,
    "lng": -115.1537,
    "timezone": "America/Los_Angeles",
    "size": "large_hub",
    "annual_pax": 41700000
  },
  {
    "iata": "MSP",
    "icao": "KMSP",
    "name": "Minneapolis-Saint Paul International",
    "city": "Minneapolis",
    "state": "MN",
    "lat": 44.8848,
    "lng": -93.2223,
    "timezone": "America/Chicago",
    "size": "large_hub",
    "annual_pax": 39800000
  },
  {
    "iata": "BOS",
    "icao": "KBOS",
    "name": "Boston Logan International",
    "city": "Boston",
    "state": "MA",
    "lat": 42.3656,
    "lng": -71.0096,
    "timezone": "America/New_York",
    "size": "large_hub",
    "annual_pax": 39500000
  },
  {
    "iata": "DTW",
    "icao": "KDTW",
    "name": "Detroit Metropolitan Wayne County",
    "city": "Detroit",
    "state": "MI",
    "lat": 42.2124,
    "lng": -83.3534,
    "timezone": "America/New_York",
    "size": "large_hub",
    "annual_pax": 36000000
  },
  {
    "iata": "FLL",
    "icao": "KFLL",
    "name": "Fort Lauderdale-Hollywood International",
    "city": "Fort Lauderdale",
    "state": "FL",
    "lat": 26.0742,
    "lng": -80.1506,
    "timezone": "America/New_York",
    "size": "large_hub",
    "annual_pax": 35800000
  },
  {
    "iata": "PHL",
    "icao": "KPHL",
    "name": "Philadelphia International",
    "city": "Philadelphia",
    "state": "PA",
    "lat": 39.8744,
    "lng": -75.2424,
    "timezone": "America/New_York",
    "size": "large_hub",
    "annual_pax": 33500000
  },
  {
    "iata": "LGA",
    "icao": "KLGA",
    "name": "LaGuardia",
    "city": "New York",
    "state": "NY",
    "lat": 40.7769,
    "lng": -73.874,
    "timezone": "America/New_York",
    "size": "large_hub",
    "annual_pax": 33000000
  },
  {
    "iata": "BWI",
    "icao": "KBWI",
    "name": "Baltimore/Washington International",
    "city": "Baltimore",
    "state": "MD",
    "lat": 39.1754,
    "lng": -76.6684,
    "timezone": "America/New_York",
    "size": "large_hub",
    "annual_pax": 27000000
  },
  {
    "iata": "SLC",
    "icao": "KSLC",
    "name": "Salt Lake City International",
    "city": "Salt Lake City",
    "state": "UT",
    "lat": 40.7899,
    "lng": -111.9791,
    "timezone": "America/Los_Angeles",
    "size": "large_hub",
    "annual_pax": 26500000
  },
  {
    "iata": "DCA",
    "icao": "KDCA",
    "name": "Ronald Reagan Washington National",
    "city": "Washington",
    "state": "DC",
    "lat": 38.8512,
    "lng": -77.0402,
    "timezone": "America/New_York",
    "size": "large_hub",
    "annual_pax": 25000000
  },
  {
    "iata": "SAN",
    "icao": "KSAN",
    "name": "San Diego International",
    "city": "San Diego",
    "state": "CA",
    "lat": 32.7338,
    "lng": -117.1933,
    "timezone": "America/Los_Angeles",
    "size": "large_hub",
    "annual_pax": 25000000
  },
  {
    "iata": "IAD",
    "icao": "KIAD",
    "name": "Washington Dulles International",
    "city": "Washington",
    "state": "DC",
    "lat": 38.9531,
    "lng": -77.4565,
    "timezone": "America/New_York",
    "size": "large_hub",
    "annual_pax": 24000000
  },
  {
    "iata": "TPA",
    "icao": "KTPA",
    "name": "Tampa International",
    "city": "Tampa",
    "state": "FL",
    "lat": 27.9756,
    "lng": -82.5333,
    "timezone": "America/New_York",
    "size": "large_hub",
    "annual_pax": 23500000
  },
  {
    "iata": "MDW",
    "icao": "KMDW",
    "name": "Chicago Midway International",
    "city": "Chicago",
    "state": "IL",
    "lat": 41.7868,
    "lng": -87.7522,
    "timezone": "America/Chicago",
    "size": "large_hub",
    "annual_pax": 22000000
  },
  {
    "iata": "PDX",
    "icao": "KPDX",
    "name": "Portland International",
    "city": "Portland",
    "state": "OR",
    "lat": 45.5898,
    "lng": -122.5951,
    "timezone": "America/Los_Angeles",
    "size": "large_hub",
    "annual_pax": 21000000
  },
  {
    "iata": "HNL",
    "icao": "PHNL",
    "name": "Daniel K. Inouye International",
    "city": "Honolulu",
    "state": "HI",
    "lat": 21.3187,
    "lng": -157.9225,
    "timezone": "Pacific/Honolulu",
    "size": "large_hub",
    "annual_pax": 20000000
  },
  {
    "iata": "AUS",
    "icao": "KAUS",
    "name": "Austin-Bergstrom International",
    "city": "Austin",
    "state": "TX",
    "lat": 30.1975,
    "lng": -97.6664,
    "timezone": "America/Chicago",
    "size": "large_hub",
    "annual_pax": 19500000
  },
  {
    "iata": "BNA",
    "icao": "KBNA",
    "name": "Nashville International",
    "city": "Nashville",
    "state": "TN",
    "lat": 36.1263,
    "lng": -86.6774,
    "timezone": "America/New_York",
    "size": "large_hub",
    "annual_pax": 19000000
  },
  {
    "iata": "HOU",
    "icao": "KHOU",
    "name": "William P. Hobby",
    "city": "Houston",
    "state": "TX",
    "lat": 29.6454,
    "lng": -95.2789,
    "timezone": "America/Chicago",
    "size": "large_hub",
    "annual_pax": 15500000
  },
  {
    "iata": "RDU",
    "icao": "KRDU",
    "name": "Raleigh-Durham International",
    "city": "Raleigh",
    "state": "NC",
    "lat": 35.8776,
    "lng": -78.7875,
    "timezone": "America/New_York",
    "size": "large_hub",
    "annual_pax": 14500000
  },
  {
    "iata": "MSY",
    "icao": "KMSY",
    "name": "Louis Armstrong New Orleans International",
    "city": "New Orleans",
    "state": "LA",
    "lat": 29.9934,
    "lng": -90.258,
    "timezone": "America/Chicago",
    "size": "large_hub",
    "annual_pax": 14000000
  },
  {
    "iata": "STL",
    "icao": "KSTL",
    "name": "St. Louis Lambert International",
    "city": "St. Louis",
    "state": "MO",
    "lat": 38.7487,
    "lng": -90.37,
    "timezone": "America/Chicago",
    "size": "large_hub",
    "annual_pax": 14000000
  },
  {
    "iata": "DAL",
    "icao": "KDAL",
    "name": "Dallas Love Field",
    "city": "Dallas",
    "state": "TX",
    "lat": 32.8471,
    "lng": -96.8518,
    "timezone": "America/Chicago",
    "size": "large_hub",
    "annual_pax": 14000000
  },
  {
    "iata": "SJC",
    "icao": "KSJC",
    "name": "San Jose International",
    "city": "San Jose",
    "state": "CA",
    "lat": 37.3626,
    "lng": -121.9291,
    "timezone": "America/Los_Angeles",
    "size": "large_hub",
    "annual_pax": 13500000
  },
  {
    "iata": "SMF",
    "icao": "KSMF",
    "name": "Sacramento International",
    "city": "Sacramento",
    "state": "CA",
    "lat": 38.6954,
    "lng": -121.5908,
    "timezone": "America/Los_Angeles",
    "size": "large_hub",
    "annual_pax": 12500000
  },
  {
    "iata": "IND",
    "icao": "KIND",
    "name": "Indianapolis International",
    "city": "Indianapolis",
    "state": "IN",
    "lat": 39.7173,
    "lng": -86.2944,
    "timezone": "America/New_York",
    "size": "large_hub",
    "annual_pax": 10500000
  },
  {
    "iata": "SNA",
    "icao": "KSNA",
    "name": "John Wayne Airport",
    "city": "Santa Ana",
    "state": "CA",
    "lat": 33.6757,
    "lng": -117.8683,
    "timezone": "America/Los_Angeles",
    "size": "medium_hub",
    "annual_pax": 10500000
  },
  {
    "iata": "PIT",
    "icao": "KPIT",
    "name": "Pittsburgh International",
    "city": "Pittsburgh",
    "state": "PA",
    "lat": 40.4915,
    "lng": -80.2329,
    "timezone": "America/New_York",
    "size": "large_hub",
    "annual_pax": 10000000
  },
  {
    "iata": "CLE",
    "icao": "KCLE",
    "name": "Cleveland Hopkins International",
    "city": "Cleveland",
    "state": "OH",
    "lat": 41.4058,
    "lng": -81.8539,
    "timezone": "America/New_York",
    "size": "large_hub",
    "annual_pax": 10000000
  },
  {
    "iata": "OAK",
    "icao": "KOAK",
    "name": "Oakland International",
    "city": "Oakland",
    "state": "CA",
    "lat": 37.7213,
    "lng": -122.2208,
    "timezone": "America/Los_Angeles",
    "size": "large_hub",
    "annual_pax": 10000000
  },
  {
    "iata": "RSW",
    "icao": "KRSW",
    "name": "Southwest Florida International",
    "city": "Fort Myers",
    "state": "FL",
    "lat": 26.5362,
    "lng": -81.7552,
    "timezone": "America/New_York",
    "size": "medium_hub",
    "annual_pax": 10000000
  },
  {
    "iata": "CVG",
    "icao": "KCVG",
    "name": "Cincinnati/Northern Kentucky International",
    "city": "Cincinnati",
    "state": "OH",
    "lat": 39.0488,
    "lng": -84.6678,
    "timezone": "America/New_York",
    "size": "medium_hub",
    "annual_pax": 9200000
  },
  {
    "iata": "SAT",
    "icao": "KSAT",
    "name": "San Antonio International",
    "city": "San Antonio",
    "state": "TX",
    "lat": 29.5337,
    "lng": -98.4698,
    "timezone": "America/Chicago",
    "size": "medium_hub",
    "annual_pax": 9000000
  },
  {
    "iata": "SJU",
    "icao": "TJJU",
    "name": "Luis Munoz Marin International",
    "city": "San Juan",
    "state": "PR",
    "lat": 18.4394,
    "lng": -66.0018,
    "timezone": "America/Puerto_Rico",
    "size": "medium_hub",
    "annual_pax": 9000000
  },
  {
    "iata": "CMH",
    "icao": "KCMH",
    "name": "John Glenn Columbus International",
    "city": "Columbus",
    "state": "OH",
    "lat": 39.998,
    "lng": -82.8919,
    "timezone": "America/New_York",
    "size": "medium_hub",
    "annual_pax": 8500000
  },
  {
    "iata": "OGG",
    "icao": "PHGG",
    "name": "Kahului",
    "city": "Kahului",
    "state": "HI",
    "lat": 20.8986,
    "lng": -156.4305,
    "timezone": "Pacific/Honolulu",
    "size": "medium_hub",
    "annual_pax": 8500000
  },
  {
    "iata": "MCI",
    "icao": "KMCI",
    "name": "Kansas City International",
    "city": "Kansas City",
    "state": "MO",
    "lat": 39.2976,
    "lng": -94.7139,
    "timezone": "America/Chicago",
    "size": "medium_hub",
    "annual_pax": 8000000
  },
  {
    "iata": "PBI",
    "icao": "KPBI",
    "name": "Palm Beach International",
    "city": "West Palm Beach",
    "state": "FL",
    "lat": 26.6832,
    "lng": -80.0956,
    "timezone": "America/New_York",
    "size": "medium_hub",
    "annual_pax": 7500000
  },
  {
    "iata": "MKE",
    "icao": "KMKE",
    "name": "General Mitchell International",
    "city": "Milwaukee",
    "state": "WI",
    "lat": 42.9472,
    "lng": -87.8966,
    "timezone": "America/Chicago",
    "size": "medium_hub",
    "annual_pax": 7200000
  },
  {
    "iata": "BDL",
    "icao": "KBDL",
    "name": "Bradley International",
    "city": "Hartford",
    "state": "CT",
    "lat": 41.9389,
    "lng": -72.6832,
    "timezone": "America/New_York",
    "size": "medium_hub",
    "annual_pax": 7000000
  },
  {
    "iata": "JAX",
    "icao": "KJAX",
    "name": "Jacksonville International",
    "city": "Jacksonville",
    "state": "FL",
    "lat": 30.4941,
    "lng": -81.6879,
    "timezone": "America/New_York",
    "size": "medium_hub",
    "annual_pax": 7000000
  },
  {
    "iata": "ABQ",
    "icao": "KABQ",
    "name": "Albuquerque International Sunport",
    "city": "Albuquerque",
    "state": "NM",
    "lat": 35.0402,
    "lng": -106.6091,
    "timezone": "America/Denver",
    "size": "medium_hub",
    "annual_pax": 6200000
  },
  {
    "iata": "ONT",
    "icao": "KONT",
    "name": "Ontario International",
    "city": "Ontario",
    "state": "CA",
    "lat": 34.056,
    "lng": -117.6012,
    "timezone": "America/Los_Angeles",
    "size": "medium_hub",
    "annual_pax": 6000000
  },
  {
    "iata": "BUR",
    "icao": "KBUR",
    "name": "Hollywood Burbank",
    "city": "Burbank",
    "state": "CA",
    "lat": 34.1997,
    "lng": -118.3585,
    "timezone": "America/Los_Angeles",
    "size": "medium_hub",
    "annual_pax": 5300000
  },
  {
    "iata": "ANC",
    "icao": "PANC",
    "name": "Ted Stevens Anchorage International",
    "city": "Anchorage",
    "state": "AK",
    "lat": 61.1744,
    "lng": -149.9964,
    "timezone": "America/Anchorage",
    "size": "medium_hub",
    "annual_pax": 5200000
  },
  {
    "iata": "BUF",
    "icao": "KBUF",
    "name": "Buffalo Niagara International",
    "city": "Buffalo",
    "state": "NY",
    "lat": 42.9405,
    "lng": -78.7322,
    "timezone": "America/New_York",
    "size": "medium_hub",
    "annual_pax": 5200000
  },
  {
    "iata": "OMA",
    "icao": "KOMA",
    "name": "Eppley Airfield",
    "city": "Omaha",
    "state": "NE",
    "lat": 41.3032,
    "lng": -95.8941,
    "timezone": "America/Chicago",
    "size": "medium_hub",
    "annual_pax": 5200000
  },
  {
    "iata": "CHS",
    "icao": "KCHS",
    "name": "Charleston International",
    "city": "Charleston",
    "state": "SC",
    "lat": 32.8986,
    "lng": -80.0405,
    "timezone": "America/New_York",
    "size": "medium_hub",
    "annual_pax": 5000000
  },
  {
    "iata": "OKC",
    "icao": "KOKC",
    "name": "Will Rogers World",
    "city": "Oklahoma City",
    "state": "OK",
    "lat": 35.3931,
    "lng": -97.6007,
    "timezone": "America/Chicago",
    "size": "medium_hub",
    "annual_pax": 5000000
  },
  {
    "iata": "RNO",
    "icao": "KRNO",
    "name": "Reno-Tahoe International",
    "city": "Reno",
    "state": "NV",
    "lat": 39.4991,
    "lng": -119.7681,
    "timezone": "America/Los_Angeles",
    "size": "medium_hub",
    "annual_pax": 5000000
  },
  {
    "iata": "MEM",
    "icao": "KMEM",
    "name": "Memphis International",
    "city": "Memphis",
    "state": "TN",
    "lat": 35.0424,
    "lng": -89.9767,
    "timezone": "America/Chicago",
    "size": "medium_hub",
    "annual_pax": 4800000
  },
  {
    "iata": "BOI",
    "icao": "KBOI",
    "name": "Boise Airport",
    "city": "Boise",
    "state": "ID",
    "lat": 43.5644,
    "lng": -116.2228,
    "timezone": "America/Los_Angeles",
    "size": "medium_hub",
    "annual_pax": 4500000
  },
  {
    "iata": "RIC",
    "icao": "KRIC",
    "name": "Richmond International",
    "city": "Richmond",
    "state": "VA",
    "lat": 37.5052,
    "lng": -77.3197,
    "timezone": "America/New_York",
    "size": "medium_hub",
    "annual_pax": 4500000
  },
  {
    "iata": "PVD",
    "icao": "KPVD",
    "name": "T.F. Green International",
    "city": "Providence",
    "state": "RI",
    "lat": 41.7226,
    "lng": -71.4285,
    "timezone": "America/New_York",
    "size": "medium_hub",
    "annual_pax": 4200000
  },
  {
    "iata": "SDF",
    "icao": "KSDF",
    "name": "Louisville Muhammad Ali International",
    "city": "Louisville",
    "state": "KY",
    "lat": 38.1741,
    "lng": -85.736,
    "timezone": "America/New_York",
    "size": "medium_hub",
    "annual_pax": 4200000
  },
  {
    "iata": "TUS",
    "icao": "KTUS",
    "name": "Tucson International",
    "city": "Tucson",
    "state": "AZ",
    "lat": 32.1161,
    "lng": -110.941,
    "timezone": "America/Denver",
    "size": "medium_hub",
    "annual_pax": 4000000
  },
  {
    "iata": "ORF",
    "icao": "KORF",
    "name": "Norfolk International",
    "city": "Norfolk",
    "state": "VA",
    "lat": 36.8946,
    "lng": -76.2012,
    "timezone": "America/New_York",
    "size": "medium_hub",
    "annual_pax": 3800000
  },
  {
    "iata": "TUL",
    "icao": "KTUL",
    "name": "Tulsa International",
    "city": "Tulsa",
    "state": "OK",
    "lat": 36.1984,
    "lng": -95.8881,
    "timezone": "America/Chicago",
    "size": "medium_hub",
    "annual_pax": 3800000
  },
  {
    "iata": "GRR",
    "icao": "KGRR",
    "name": "Gerald R. Ford International",
    "city": "Grand Rapids",
    "state": "MI",
    "lat": 42.8808,
    "lng": -85.5228,
    "timezone": "America/New_York",
    "size": "medium_hub",
    "annual_pax": 3500000
  },
  {
    "iata": "ELP",
    "icao": "KELP",
    "name": "El Paso International",
    "city": "El Paso",
    "state": "TX",
    "lat": 31.8072,
    "lng": -106.3776,
    "timezone": "America/Denver",
    "size": "medium_hub",
    "annual_pax": 3500000
  },
  {
    "iata": "KOA",
    "icao": "PHOA",
    "name": "Ellison Onizuka Kona International",
    "city": "Kailua-Kona",
    "state": "HI",
    "lat": 19.7388,
    "lng": -156.0456,
    "timezone": "Pacific/Honolulu",
    "size": "small_hub",
    "annual_pax": 3500000
  },
  {
    "iata": "SRQ",
    "icao": "KSRQ",
    "name": "Sarasota Bradenton International",
    "city": "Sarasota",
    "state": "FL",
    "lat": 27.3954,
    "lng": -82.5544,
    "timezone": "America/New_York",
    "size": "small_hub",
    "annual_pax": 3500000
  },
  {
    "iata": "GEG",
    "icao": "KGEG",
    "name": "Spokane International",
    "city": "Spokane",
    "state": "WA",
    "lat": 47.6199,
    "lng": -117.5338,
    "timezone": "America/Los_Angeles",
    "size": "nonhub",
    "annual_pax": 3500000
  },
  {
    "iata": "BHM",
    "icao": "KBHM",
    "name": "Birmingham-Shuttlesworth International",
    "city": "Birmingham",
    "state": "AL",
    "lat": 33.5629,
    "lng": -86.7535,
    "timezone": "America/New_York",
    "size": "medium_hub",
    "annual_pax": 3200000
  },
  {
    "iata": "ALB",
    "icao": "KALB",
    "name": "Albany International",
    "city": "Albany",
    "state": "NY",
    "lat": 42.7483,
    "lng": -73.8017,
    "timezone": "America/New_York",
    "size": "small_hub",
    "annual_pax": 3200000
  },
  {
    "iata": "GUM",
    "icao": "PGUM",
    "name": "Antonio B. Won Pat International",
    "city": "Hagatna",
    "state": "GU",
    "lat": 13.4834,
    "lng": 144.7961,
    "timezone": "Pacific/Guam",
    "size": "small_hub",
    "annual_pax": 3200000
  },
  {
    "iata": "LIH",
    "icao": "PHIH",
    "name": "Lihue",
    "city": "Lihue",
    "state": "HI",
    "lat": 21.976,
    "lng": -159.339,
    "timezone": "Pacific/Honolulu",
    "size": "small_hub",
    "annual_pax": 3200000
  },
  {
    "iata": "GSP",
    "icao": "KGSP",
    "name": "Greenville-Spartanburg International",
    "city": "Greenville",
    "state": "SC",
    "lat": 34.8957,
    "lng": -82.2189,
    "timezone": "America/New_York",
    "size": "medium_hub",
    "annual_pax": 3000000
  },
  {
    "iata": "DSM",
    "icao": "KDSM",
    "name": "Des Moines International",
    "city": "Des Moines",
    "state": "IA",
    "lat": 41.534,
    "lng": -93.6631,
    "timezone": "America/Chicago",
    "size": "small_hub",
    "annual_pax": 3000000
  },
  {
    "iata": "MYR",
    "icao": "KMYR",
    "name": "Myrtle Beach International",
    "city": "Myrtle Beach",
    "state": "SC",
    "lat": 33.6797,
    "lng": -78.9283,
    "timezone": "America/New_York",
    "size": "small_hub",
    "annual_pax": 3000000
  },
  {
    "iata": "SAV",
    "icao": "KSAV",
    "name": "Savannah/Hilton Head International",
    "city": "Savannah",
    "state": "GA",
    "lat": 32.1276,
    "lng": -81.2021,
    "timezone": "America/New_York",
    "size": "small_hub",
    "annual_pax": 3000000
  },
  {
    "iata": "LIT",
    "icao": "KLIT",
    "name": "Bill and Hillary Clinton National",
    "city": "Little Rock",
    "state": "AR",
    "lat": 34.7294,
    "lng": -92.2243,
    "timezone": "America/Chicago",
    "size": "medium_hub",
    "annual_pax": 2500000
  },
  {
    "iata": "PSP",
    "icao": "KPSP",
    "name": "Palm Springs International",
    "city": "Palm Springs",
    "state": "CA",
    "lat": 33.8297,
    "lng": -116.5067,
    "timezone": "America/Los_Angeles",
    "size": "small_hub",
    "annual_pax": 2500000
  },
  {
    "iata": "ROC",
    "icao": "KROC",
    "name": "Frederick Douglass Greater Rochester International",
    "city": "Rochester",
    "state": "NY",
    "lat": 43.1189,
    "lng": -77.6724,
    "timezone": "America/New_York",
    "size": "small_hub",
    "annual_pax": 2500000
  },
  {
    "iata": "PIE",
    "icao": "KPIE",
    "name": "St. Pete-Clearwater International",
    "city": "St. Petersburg",
    "state": "FL",
    "lat": 27.9106,
    "lng": -82.6874,
    "timezone": "America/New_York",
    "size": "nonhub",
    "annual_pax": 2500000
  },
  {
    "iata": "MSN",
    "icao": "KMSN",
    "name": "Dane County Regional",
    "city": "Madison",
    "state": "WI",
    "lat": 43.1399,
    "lng": -89.3375,
    "timezone": "America/Chicago",
    "size": "small_hub",
    "annual_pax": 2200000
  },
  {
    "iata": "PNS",
    "icao": "KPNS",
    "name": "Pensacola International",
    "city": "Pensacola",
    "state": "FL",
    "lat": 30.4734,
    "lng": -87.1866,
    "timezone": "America/New_York",
    "size": "small_hub",
    "annual_pax": 2200000
  },
  {
    "iata": "PWM",
    "icao": "KPWM",
    "name": "Portland International Jetport",
    "city": "Portland",
    "state": "ME",
    "lat": 43.6462,
    "lng": -70.3093,
    "timezone": "America/New_York",
    "size": "small_hub",
    "annual_pax": 2200000
  },
  {
    "iata": "SYR",
    "icao": "KSYR",
    "name": "Syracuse Hancock International",
    "city": "Syracuse",
    "state": "NY",
    "lat": 43.1112,
    "lng": -76.1063,
    "timezone": "America/New_York",
    "size": "small_hub",
    "annual_pax": 2200000
  },
  {
    "iata": "TYS",
    "icao": "KTYS",
    "name": "McGhee Tyson",
    "city": "Knoxville",
    "state": "TN",
    "lat": 35.811,
    "lng": -83.994,
    "timezone": "America/New_York",
    "size": "small_hub",
    "annual_pax": 2200000
  },
  {
    "iata": "AVL",
    "icao": "KAVL",
    "name": "Asheville Regional",
    "city": "Asheville",
    "state": "NC",
    "lat": 35.4362,
    "lng": -82.5418,
    "timezone": "America/New_York",
    "size": "small_hub",
    "annual_pax": 2000000
  },
  {
    "iata": "COS",
    "icao": "KCOS",
    "name": "Colorado Springs",
    "city": "Colorado Springs",
    "state": "CO",
    "lat": 38.8058,
    "lng": -104.7007,
    "timezone": "America/Denver",
    "size": "small_hub",
    "annual_pax": 2000000
  },
  {
    "iata": "FAT",
    "icao": "KFAT",
    "name": "Fresno Yosemite International",
    "city": "Fresno",
    "state": "CA",
    "lat": 36.7762,
    "lng": -119.7181,
    "timezone": "America/Los_Angeles",
    "size": "small_hub",
    "annual_pax": 2000000
  },
  {
    "iata": "GSO",
    "icao": "KGSO",
    "name": "Piedmont Triad International",
    "city": "Greensboro",
    "state": "NC",
    "lat": 36.0978,
    "lng": -79.9373,
    "timezone": "America/New_York",
    "size": "small_hub",
    "annual_pax": 2000000
  },
  {
    "iata": "VPS",
    "icao": "KVPS",
    "name": "Destin-Fort Walton Beach",
    "city": "Valparaiso",
    "state": "FL",
    "lat": 30.4832,
    "lng": -86.5254,
    "timezone": "America/New_York",
    "size": "small_hub",
    "annual_pax": 2000000
  },
  {
    "iata": "XNA",
    "icao": "KXNA",
    "name": "Northwest Arkansas National",
    "city": "Fayetteville",
    "state": "AR",
    "lat": 36.2819,
    "lng": -94.3068,
    "timezone": "America/Chicago",
    "size": "small_hub",
    "annual_pax": 2000000
  },
  {
    "iata": "BZN",
    "icao": "KBZN",
    "name": "Bozeman Yellowstone International",
    "city": "Bozeman",
    "state": "MT",
    "lat": 45.7775,
    "lng": -111.153,
    "timezone": "America/Los_Angeles",
    "size": "nonhub",
    "annual_pax": 1800000
  },
  {
    "iata": "STT",
    "icao": "TJTT",
    "name": "Cyril E. King",
    "city": "Charlotte Amalie",
    "state": "VI",
    "lat": 18.3373,
    "lng": -64.9733,
    "timezone": "America/Virgin",
    "size": "medium_hub",
    "annual_pax": 1600000
  },
  {
    "iata": "ACY",
    "icao": "KACY",
    "name": "Atlantic City International",
    "city": "Atlantic City",
    "state": "NJ",
    "lat": 39.4576,
    "lng": -74.5772,
    "timezone": "America/New_York",
    "size": "small_hub",
    "annual_pax": 1600000
  },
  {
    "iata": "ICT",
    "icao": "KICT",
    "name": "Wichita Dwight D. Eisenhower National",
    "city": "Wichita",
    "state": "KS",
    "lat": 37.6499,
    "lng": -97.4331,
    "timezone": "America/Chicago",
    "size": "small_hub",
    "annual_pax": 1600000
  },
  {
    "iata": "MHT",
    "icao": "KMHT",
    "name": "Manchester-Boston Regional",
    "city": "Manchester",
    "state": "NH",
    "lat": 42.9326,
    "lng": -71.4357,
    "timezone": "America/New_York",
    "size": "nonhub",
    "annual_pax": 1600000
  },
  {
    "iata": "BTV",
    "icao": "KBTV",
    "name": "Burlington International",
    "city": "Burlington",
    "state": "VT",
    "lat": 44.472,
    "lng": -73.1533,
    "timezone": "America/New_York",
    "size": "small_hub",
    "annual_pax": 1500000
  },
  {
    "iata": "ECP",
    "icao": "KECP",
    "name": "Northwest Florida Beaches International",
    "city": "Panama City Beach",
    "state": "FL",
    "lat": 30.3571,
    "lng": -85.7955,
    "timezone": "America/New_York",
    "size": "small_hub",
    "annual_pax": 1500000
  },
  {
    "iata": "HSV",
    "icao": "KHSV",
    "name": "Huntsville International",
    "city": "Huntsville",
    "state": "AL",
    "lat": 34.6372,
    "lng": -86.7751,
    "timezone": "America/New_York",
    "size": "small_hub",
    "annual_pax": 1500000
  },
  {
    "iata": "MDT",
    "icao": "KMDT",
    "name": "Harrisburg International",
    "city": "Harrisburg",
    "state": "PA",
    "lat": 40.1935,
    "lng": -76.7634,
    "timezone": "America/New_York",
    "size": "nonhub",
    "annual_pax": 1500000
  },
  {
    "iata": "CAE",
    "icao": "KCAE",
    "name": "Columbia Metropolitan",
    "city": "Columbia",
    "state": "SC",
    "lat": 33.9389,
    "lng": -81.1195,
    "timezone": "America/New_York",
    "size": "small_hub",
    "annual_pax": 1200000
  },
  {
    "iata": "DAY",
    "icao": "KDAY",
    "name": "James M. Cox Dayton International",
    "city": "Dayton",
    "state": "OH",
    "lat": 39.9024,
    "lng": -84.2194,
    "timezone": "America/New_York",
    "size": "small_hub",
    "annual_pax": 1200000
  },
  {
    "iata": "FSD",
    "icao": "KFSD",
    "name": "Joe Foss Field",
    "city": "Sioux Falls",
    "state": "SD",
    "lat": 43.5817,
    "lng": -96.7419,
    "timezone": "America/Chicago",
    "size": "small_hub",
    "annual_pax": 1200000
  },
  {
    "iata": "LEX",
    "icao": "KLEX",
    "name": "Blue Grass",
    "city": "Lexington",
    "state": "KY",
    "lat": 38.0365,
    "lng": -84.6059,
    "timezone": "America/New_York",
    "size": "small_hub",
    "annual_pax": 1200000
  },
  {
    "iata": "ITO",
    "icao": "PHTO",
    "name": "Hilo International",
    "city": "Hilo",
    "state": "HI",
    "lat": 19.7214,
    "lng": -155.0485,
    "timezone": "Pacific/Honolulu",
    "size": "nonhub",
    "annual_pax": 1200000
  },
  {
    "iata": "CAK",
    "icao": "KCAK",
    "name": "Akron-Canton",
    "city": "Akron",
    "state": "OH",
    "lat": 40.9161,
    "lng": -81.4422,
    "timezone": "America/New_York",
    "size": "small_hub",
    "annual_pax": 1000000
  },
  {
    "iata": "CID",
    "icao": "KCID",
    "name": "The Eastern Iowa",
    "city": "Cedar Rapids",
    "state": "IA",
    "lat": 41.8847,
    "lng": -91.7108,
    "timezone": "America/Chicago",
    "size": "small_hub",
    "annual_pax": 1000000
  },
  {
    "iata": "ISP",
    "icao": "KISP",
    "name": "Long Island MacArthur",
    "city": "Islip",
    "state": "NY",
    "lat": 40.7952,
    "lng": -73.1002,
    "timezone": "America/New_York",
    "size": "small_hub",
    "annual_pax": 1000000
  },
  {
    "iata": "EUG",
    "icao": "KEUG",
    "name": "Mahlon Sweet Field",
    "city": "Eugene",
    "state": "OR",
    "lat": 44.1246,
    "lng": -123.2119,
    "timezone": "America/Los_Angeles",
    "size": "nonhub",
    "annual_pax": 1000000
  },
  {
    "iata": "BTR",
    "icao": "KBTR",
    "name": "Baton Rouge Metropolitan",
    "city": "Baton Rouge",
    "state": "LA",
    "lat": 30.5328,
    "lng": -91.1496,
    "timezone": "America/Chicago",
    "size": "small_hub",
    "annual_pax": 900000
  },
  {
    "iata": "FAR",
    "icao": "KFAR",
    "name": "Hector International",
    "city": "Fargo",
    "state": "ND",
    "lat": 46.9207,
    "lng": -96.8158,
    "timezone": "America/Chicago",
    "size": "small_hub",
    "annual_pax": 900000
  },
  {
    "iata": "ILM",
    "icao": "KILM",
    "name": "Wilmington International",
    "city": "Wilmington",
    "state": "NC",
    "lat": 34.2706,
    "lng": -77.9016,
    "timezone": "America/New_York",
    "size": "small_hub",
    "annual_pax": 900000
  },
  {
    "iata": "BIL",
    "icao": "KBIL",
    "name": "Billings Logan International",
    "city": "Billings",
    "state": "MT",
    "lat": 45.8077,
    "lng": -108.5429,
    "timezone": "America/Denver",
    "size": "small_hub",
    "annual_pax": 800000
  },
  {
    "iata": "DAB",
    "icao": "KDAB",
    "name": "Daytona Beach International",
    "city": "Daytona Beach",
    "state": "FL",
    "lat": 29.1799,
    "lng": -81.0581,
    "timezone": "America/New_York",
    "size": "small_hub",
    "annual_pax": 800000
  },
  {
    "iata": "MLI",
    "icao": "KMLI",
    "name": "Quad City International",
    "city": "Moline",
    "state": "IL",
    "lat": 41.4485,
    "lng": -90.5075,
    "timezone": "America/Chicago",
    "size": "small_hub",
    "annual_pax": 800000
  },
  {
    "iata": "SBA",
    "icao": "KSBA",
    "name": "Santa Barbara Municipal",
    "city": "Santa Barbara",
    "state": "CA",
    "lat": 34.4262,
    "lng": -119.8404,
    "timezone": "America/Los_Angeles",
    "size": "small_hub",
    "annual_pax": 800000
  },
  {
    "iata": "SGF",
    "icao": "KSGF",
    "name": "Springfield-Branson National",
    "city": "Springfield",
    "state": "MO",
    "lat": 37.2457,
    "lng": -93.3886,
    "timezone": "America/Chicago",
    "size": "small_hub",
    "annual_pax": 800000
  },
  {
    "iata": "ABE",
    "icao": "KABE",
    "name": "Lehigh Valley International",
    "city": "Allentown",
    "state": "PA",
    "lat": 40.6521,
    "lng": -75.4408,
    "timezone": "America/New_York",
    "size": "nonhub",
    "annual_pax": 800000
  },
  {
    "iata": "GPT",
    "icao": "KGPT",
    "name": "Gulfport-Biloxi International",
    "city": "Gulfport",
    "state": "MS",
    "lat": 30.4073,
    "lng": -89.0701,
    "timezone": "America/Chicago",
    "size": "small_hub",
    "annual_pax": 700000
  },
  {
    "iata": "JAN",
    "icao": "KJAN",
    "name": "Jackson-Medgar Wiley Evers International",
    "city": "Jackson",
    "state": "MS",
    "lat": 32.3112,
    "lng": -90.0759,
    "timezone": "America/Chicago",
    "size": "small_hub",
    "annual_pax": 700000
  },
  {
    "iata": "MAF",
    "icao": "KMAF",
    "name": "Midland International Air and Space Port",
    "city": "Midland",
    "state": "TX",
    "lat": 31.9425,
    "lng": -102.2019,
    "timezone": "America/Chicago",
    "size": "small_hub",
    "annual_pax": 700000
  },
  {
    "iata": "TLH",
    "icao": "KTLH",
    "name": "Tallahassee International",
    "city": "Tallahassee",
    "state": "FL",
    "lat": 30.3965,
    "lng": -84.3503,
    "timezone": "America/New_York",
    "size": "small_hub",
    "annual_pax": 700000
  },
  {
    "iata": "AMA",
    "icao": "KAMA",
    "name": "Rick Husband Amarillo International",
    "city": "Amarillo",
    "state": "TX",
    "lat": 35.2194,
    "lng": -101.7059,
    "timezone": "America/Chicago",
    "size": "nonhub",
    "annual_pax": 700000
  },
  {
    "iata": "FCA",
    "icao": "KFCA",
    "name": "Glacier Park International",
    "city": "Kalispell",
    "state": "MT",
    "lat": 48.3105,
    "lng": -114.256,
    "timezone": "America/Los_Angeles",
    "size": "nonhub",
    "annual_pax": 700000
  },
  {
    "iata": "GRB",
    "icao": "KGRB",
    "name": "Green Bay Austin Straubel International",
    "city": "Green Bay",
    "state": "WI",
    "lat": 44.4851,
    "lng": -88.1296,
    "timezone": "America/Chicago",
    "size": "nonhub",
    "annual_pax": 700000
  },
  {
    "iata": "HPN",
    "icao": "KHPN",
    "name": "Westchester County",
    "city": "White Plains",
    "state": "NY",
    "lat": 41.067,
    "lng": -73.7076,
    "timezone": "America/New_York",
    "size": "nonhub",
    "annual_pax": 700000
  },
  {
    "iata": "JAC",
    "icao": "KJAC",
    "name": "Jackson Hole",
    "city": "Jackson",
    "state": "WY",
    "lat": 43.6073,
    "lng": -110.7378,
    "timezone": "America/Denver",
    "size": "nonhub",
    "annual_pax": 700000
  },
  {
    "iata": "JNU",
    "icao": "PANU",
    "name": "Juneau International",
    "city": "Juneau",
    "state": "AK",
    "lat": 58.355,
    "lng": -134.5762,
    "timezone": "America/Anchorage",
    "size": "nonhub",
    "annual_pax": 700000
  },
  {
    "iata": "LBB",
    "icao": "KLBB",
    "name": "Lubbock Preston Smith International",
    "city": "Lubbock",
    "state": "TX",
    "lat": 33.6636,
    "lng": -101.8227,
    "timezone": "America/Chicago",
    "size": "nonhub",
    "annual_pax": 700000
  },
  {
    "iata": "PSC",
    "icao": "KPSC",
    "name": "Tri-Cities",
    "city": "Pasco",
    "state": "WA",
    "lat": 46.2647,
    "lng": -119.1191,
    "timezone": "America/Los_Angeles",
    "size": "nonhub",
    "annual_pax": 700000
  },
  {
    "iata": "FWA",
    "icao": "KFWA",
    "name": "Fort Wayne International",
    "city": "Fort Wayne",
    "state": "IN",
    "lat": 40.9785,
    "lng": -85.1951,
    "timezone": "America/New_York",
    "size": "small_hub",
    "annual_pax": 600000
  },
  {
    "iata": "MFR",
    "icao": "KMFR",
    "name": "Rogue Valley International-Medford",
    "city": "Medford",
    "state": "OR",
    "lat": 42.3742,
    "lng": -122.8735,
    "timezone": "America/Los_Angeles",
    "size": "small_hub",
    "annual_pax": 600000
  },
  {
    "iata": "MOB",
    "icao": "KMOB",
    "name": "Mobile Regional",
    "city": "Mobile",
    "state": "AL",
    "lat": 30.6914,
    "lng": -88.2428,
    "timezone": "America/Chicago",
    "size": "small_hub",
    "annual_pax": 600000
  },
  {
    "iata": "RAP",
    "icao": "KRAP",
    "name": "Rapid City Regional",
    "city": "Rapid City",
    "state": "SD",
    "lat": 44.0453,
    "lng": -103.0574,
    "timezone": "America/Chicago",
    "size": "small_hub",
    "annual_pax": 600000
  },
  {
    "iata": "ROA",
    "icao": "KROA",
    "name": "Roanoke-Blacksburg Regional",
    "city": "Roanoke",
    "state": "VA",
    "lat": 37.3255,
    "lng": -79.9754,
    "timezone": "America/New_York",
    "size": "small_hub",
    "annual_pax": 600000
  },
  {
    "iata": "SBN",
    "icao": "KSBN",
    "name": "South Bend International",
    "city": "South Bend",
    "state": "IN",
    "lat": 41.7087,
    "lng": -86.3173,
    "timezone": "America/New_York",
    "size": "small_hub",
    "annual_pax": 600000
  },
  {
    "iata": "SWF",
    "icao": "KSWF",
    "name": "New York Stewart International",
    "city": "Newburgh",
    "state": "NY",
    "lat": 41.5041,
    "lng": -74.1048,
    "timezone": "America/New_York",
    "size": "small_hub",
    "annual_pax": 600000
  },
  {
    "iata": "ATW",
    "icao": "KATW",
    "name": "Appleton International",
    "city": "Appleton",
    "state": "WI",
    "lat": 44.2581,
    "lng": -88.5191,
    "timezone": "America/Chicago",
    "size": "nonhub",
    "annual_pax": 600000
  },
  {
    "iata": "CRP",
    "icao": "KCRP",
    "name": "Corpus Christi International",
    "city": "Corpus Christi",
    "state": "TX",
    "lat": 27.7704,
    "lng": -97.5012,
    "timezone": "America/Chicago",
    "size": "nonhub",
    "annual_pax": 600000
  },
  {
    "iata": "HRL",
    "icao": "KHRL",
    "name": "Valley International",
    "city": "Harlingen",
    "state": "TX",
    "lat": 26.2285,
    "lng": -97.6544,
    "timezone": "America/Chicago",
    "size": "nonhub",
    "annual_pax": 600000
  },
  {
    "iata": "MSO",
    "icao": "KMSO",
    "name": "Missoula Montana",
    "city": "Missoula",
    "state": "MT",
    "lat": 46.9163,
    "lng": -114.0906,
    "timezone": "America/Los_Angeles",
    "size": "nonhub",
    "annual_pax": 600000
  },
  {
    "iata": "RDM",
    "icao": "KRDM",
    "name": "Redmond Municipal",
    "city": "Redmond",
    "state": "OR",
    "lat": 44.2541,
    "lng": -121.15,
    "timezone": "America/Los_Angeles",
    "size": "nonhub",
    "annual_pax": 600000
  },
  {
    "iata": "AVP",
    "icao": "KAVP",
    "name": "Wilkes-Barre/Scranton International",
    "city": "Wilkes-Barre",
    "state": "PA",
    "lat": 41.3385,
    "lng": -75.7234,
    "timezone": "America/New_York",
    "size": "small_hub",
    "annual_pax": 500000
  },
  {
    "iata": "BLI",
    "icao": "KBLI",
    "name": "Bellingham International",
    "city": "Bellingham",
    "state": "WA",
    "lat": 48.7927,
    "lng": -122.5376,
    "timezone": "America/Los_Angeles",
    "size": "small_hub",
    "annual_pax": 500000
  },
  {
    "iata": "CHA",
    "icao": "KCHA",
    "name": "Chattanooga Metropolitan",
    "city": "Chattanooga",
    "state": "TN",
    "lat": 35.0353,
    "lng": -85.2038,
    "timezone": "America/New_York",
    "size": "small_hub",
    "annual_pax": 500000
  },
  {
    "iata": "FNT",
    "icao": "KFNT",
    "name": "Bishop International",
    "city": "Flint",
    "state": "MI",
    "lat": 42.9665,
    "lng": -83.7436,
    "timezone": "America/New_York",
    "size": "small_hub",
    "annual_pax": 500000
  },
  {
    "iata": "MFE",
    "icao": "KMFE",
    "name": "McAllen Miller International",
    "city": "McAllen",
    "state": "TX",
    "lat": 26.1758,
    "lng": -98.2386,
    "timezone": "America/Chicago",
    "size": "small_hub",
    "annual_pax": 500000
  },
  {
    "iata": "SHV",
    "icao": "KSHV",
    "name": "Shreveport Regional",
    "city": "Shreveport",
    "state": "LA",
    "lat": 32.4466,
    "lng": -93.8256,
    "timezone": "America/Chicago",
    "size": "small_hub",
    "annual_pax": 500000
  },
  {
    "iata": "TRI",
    "icao": "KTRI",
    "name": "Tri-Cities Regional",
    "city": "Bristol",
    "state": "TN",
    "lat": 36.4752,
    "lng": -82.4074,
    "timezone": "America/New_York",
    "size": "small_hub",
    "annual_pax": 500000
  },
  {
    "iata": "BGR",
    "icao": "KBGR",
    "name": "Bangor International",
    "city": "Bangor",
    "state": "ME",
    "lat": 44.8074,
    "lng": -68.8281,
    "timezone": "America/New_York",
    "size": "nonhub",
    "annual_pax": 500000
  },
  {
    "iata": "BLV",
    "icao": "KBLV",
    "name": "MidAmerica St. Louis",
    "city": "Belleville",
    "state": "IL",
    "lat": 38.5452,
    "lng": -89.8352,
    "timezone": "America/Chicago",
    "size": "nonhub",
    "annual_pax": 500000
  },
  {
    "iata": "EGE",
    "icao": "KEGE",
    "name": "Eagle County Regional",
    "city": "Vail",
    "state": "CO",
    "lat": 39.6426,
    "lng": -106.9159,
    "timezone": "America/Denver",
    "size": "nonhub",
    "annual_pax": 500000
  },
  {
    "iata": "TVC",
    "icao": "KTVC",
    "name": "Cherry Capital",
    "city": "Traverse City",
    "state": "MI",
    "lat": 44.7415,
    "lng": -85.5822,
    "timezone": "America/New_York",
    "size": "nonhub",
    "annual_pax": 500000
  },
  {
    "iata": "TTN",
    "icao": "KTTN",
    "name": "Trenton-Mercer",
    "city": "Trenton",
    "state": "NJ",
    "lat": 40.2767,
    "lng": -74.8135,
    "timezone": "America/New_York",
    "size": "nonhub",
    "annual_pax": 500000
  },
  {
    "iata": "AGS",
    "icao": "KAGS",
    "name": "Augusta Regional",
    "city": "Augusta",
    "state": "GA",
    "lat": 33.3699,
    "lng": -81.9645,
    "timezone": "America/New_York",
    "size": "small_hub",
    "annual_pax": 400000
  },
  {
    "iata": "AZO",
    "icao": "KAZO",
    "name": "Kalamazoo/Battle Creek International",
    "city": "Kalamazoo",
    "state": "MI",
    "lat": 42.235,
    "lng": -85.5521,
    "timezone": "America/New_York",
    "size": "small_hub",
    "annual_pax": 400000
  },
  {
    "iata": "BMI",
    "icao": "KBMI",
    "name": "Central Illinois Regional",
    "city": "Bloomington",
    "state": "IL",
    "lat": 40.4771,
    "lng": -88.9159,
    "timezone": "America/Chicago",
    "size": "small_hub",
    "annual_pax": 400000
  },
  {
    "iata": "CRW",
    "icao": "KCRW",
    "name": "Yeager",
    "city": "Charleston",
    "state": "WV",
    "lat": 38.3731,
    "lng": -81.5932,
    "timezone": "America/New_York",
    "size": "small_hub",
    "annual_pax": 400000
  },
  {
    "iata": "EVV",
    "icao": "KEVV",
    "name": "Evansville Regional",
    "city": "Evansville",
    "state": "IN",
    "lat": 38.037,
    "lng": -87.5324,
    "timezone": "America/New_York",
    "size": "small_hub",
    "annual_pax": 400000
  },
  {
    "iata": "FAY",
    "icao": "KFAY",
    "name": "Fayetteville Regional",
    "city": "Fayetteville",
    "state": "NC",
    "lat": 34.9912,
    "lng": -78.8803,
    "timezone": "America/New_York",
    "size": "small_hub",
    "annual_pax": 400000
  },
  {
    "iata": "GNV",
    "icao": "KGNV",
    "name": "Gainesville Regional",
    "city": "Gainesville",
    "state": "FL",
    "lat": 29.69,
    "lng": -82.2718,
    "timezone": "America/New_York",
    "size": "small_hub",
    "annual_pax": 400000
  },
  {
    "iata": "PIA",
    "icao": "KPIA",
    "name": "General Wayne A. Downing Peoria International",
    "city": "Peoria",
    "state": "IL",
    "lat": 40.6642,
    "lng": -89.6933,
    "timezone": "America/Chicago",
    "size": "small_hub",
    "annual_pax": 400000
  },
  {
    "iata": "DLH",
    "icao": "KDLH",
    "name": "Duluth International",
    "city": "Duluth",
    "state": "MN",
    "lat": 46.8421,
    "lng": -92.1936,
    "timezone": "America/Chicago",
    "size": "nonhub",
    "annual_pax": 400000
  },
  {
    "iata": "LAN",
    "icao": "KLAN",
    "name": "Capital Region International",
    "city": "Lansing",
    "state": "MI",
    "lat": 42.7787,
    "lng": -84.5874,
    "timezone": "America/New_York",
    "size": "nonhub",
    "annual_pax": 400000
  },
  {
    "iata": "LNK",
    "icao": "KLNK",
    "name": "Lincoln",
    "city": "Lincoln",
    "state": "NE",
    "lat": 40.851,
    "lng": -96.7592,
    "timezone": "America/Chicago",
    "size": "nonhub",
    "annual_pax": 400000
  },
  {
    "iata": "SPN",
    "icao": "PGPN",
    "name": "Francisco C. Ada/Saipan International",
    "city": "Saipan",
    "state": "MP",
    "lat": 15.119,
    "lng": 145.7294,
    "timezone": "America/New_York",
    "size": "nonhub",
    "annual_pax": 400000
  },
  {
    "iata": "BIS",
    "icao": "KBIS",
    "name": "Bismarck Municipal",
    "city": "Bismarck",
    "state": "ND",
    "lat": 46.7728,
    "lng": -100.7468,
    "timezone": "America/Chicago",
    "size": "small_hub",
    "annual_pax": 350000
  },
  {
    "iata": "SPI",
    "icao": "KSPI",
    "name": "Abraham Lincoln Capital",
    "city": "Springfield",
    "state": "IL",
    "lat": 39.8441,
    "lng": -89.6779,
    "timezone": "America/Chicago",
    "size": "small_hub",
    "annual_pax": 300000
  },
  {
    "iata": "GJT",
    "icao": "KGJT",
    "name": "Grand Junction Regional",
    "city": "Grand Junction",
    "state": "CO",
    "lat": 39.1224,
    "lng": -108.5267,
    "timezone": "America/Denver",
    "size": "nonhub",
    "annual_pax": 300000
  },
  {
    "iata": "GTF",
    "icao": "KGTF",
    "name": "Great Falls International",
    "city": "Great Falls",
    "state": "MT",
    "lat": 47.482,
    "lng": -111.3707,
    "timezone": "America/Los_Angeles",
    "size": "nonhub",
    "annual_pax": 300000
  },
  {
    "iata": "IDA",
    "icao": "KIDA",
    "name": "Idaho Falls Regional",
    "city": "Idaho Falls",
    "state": "ID",
    "lat": 43.5146,
    "lng": -112.0702,
    "timezone": "America/Los_Angeles",
    "size": "nonhub",
    "annual_pax": 300000
  },
  {
    "iata": "PHF",
    "icao": "KPHF",
    "name": "Newport News/Williamsburg International",
    "city": "Newport News",
    "state": "VA",
    "lat": 37.1319,
    "lng": -76.493,
    "timezone": "America/New_York",
    "size": "nonhub",
    "annual_pax": 300000
  },
  {
    "iata": "SBP",
    "icao": "KSBP",
    "name": "San Luis Obispo County Regional",
    "city": "San Luis Obispo",
    "state": "CA",
    "lat": 35.2368,
    "lng": -120.6424,
    "timezone": "America/Los_Angeles",
    "size": "nonhub",
    "annual_pax": 300000
  },
  {
    "iata": "MRY",
    "icao": "KMRY",
    "name": "Monterey Regional",
    "city": "Monterey",
    "state": "CA",
    "lat": 36.587,
    "lng": -121.843,
    "timezone": "America/Los_Angeles",
    "size": "nonhub",
    "annual_pax": 300000
  },
  {
    "iata": "SGU",
    "icao": "KSGU",
    "name": "St. George Regional",
    "city": "St. George",
    "state": "UT",
    "lat": 37.0364,
    "lng": -113.5103,
    "timezone": "America/Los_Angeles",
    "size": "nonhub",
    "annual_pax": 300000
  },
  {
    "iata": "TOL",
    "icao": "KTOL",
    "name": "Eugene F. Kranz Toledo Express",
    "city": "Toledo",
    "state": "OH",
    "lat": 41.5868,
    "lng": -83.8078,
    "timezone": "America/New_York",
    "size": "nonhub",
    "annual_pax": 300000
  },
  {
    "iata": "LFT",
    "icao": "KLFT",
    "name": "Lafayette Regional",
    "city": "Lafayette",
    "state": "LA",
    "lat": 30.2053,
    "lng": -91.9876,
    "timezone": "America/Chicago",
    "size": "nonhub",
    "annual_pax": 250000
  },
  {
    "iata": "MTJ",
    "icao": "KMTJ",
    "name": "Montrose Regional",
    "city": "Montrose",
    "state": "CO",
    "lat": 38.5098,
    "lng": -107.894,
    "timezone": "America/Denver",
    "size": "nonhub",
    "annual_pax": 250000
  },
  {
    "iata": "RST",
    "icao": "KRST",
    "name": "Rochester International",
    "city": "Rochester",
    "state": "MN",
    "lat": 43.9083,
    "lng": -92.5,
    "timezone": "America/Chicago",
    "size": "small_hub",
    "annual_pax": 200000
  },
  {
    "iata": "AEX",
    "icao": "KAEX",
    "name": "Alexandria International",
    "city": "Alexandria",
    "state": "LA",
    "lat": 31.3274,
    "lng": -92.5486,
    "timezone": "America/Chicago",
    "size": "nonhub",
    "annual_pax": 200000
  },
  {
    "iata": "BRO",
    "icao": "KBRO",
    "name": "Brownsville/South Padre Island International",
    "city": "Brownsville",
    "state": "TX",
    "lat": 25.9068,
    "lng": -97.4259,
    "timezone": "America/Chicago",
    "size": "nonhub",
    "annual_pax": 200000
  },
  {
    "iata": "CMI",
    "icao": "KCMI",
    "name": "University of Illinois Willard",
    "city": "Champaign",
    "state": "IL",
    "lat": 40.0392,
    "lng": -88.2781,
    "timezone": "America/Chicago",
    "size": "nonhub",
    "annual_pax": 200000
  },
  {
    "iata": "CWA",
    "icao": "KCWA",
    "name": "Central Wisconsin",
    "city": "Wausau",
    "state": "WI",
    "lat": 44.7776,
    "lng": -89.6668,
    "timezone": "America/Chicago",
    "size": "nonhub",
    "annual_pax": 200000
  },
  {
    "iata": "DRO",
    "icao": "KDRO",
    "name": "Durango-La Plata County",
    "city": "Durango",
    "state": "CO",
    "lat": 37.1515,
    "lng": -107.7538,
    "timezone": "America/Denver",
    "size": "nonhub",
    "annual_pax": 200000
  },
  {
    "iata": "HDN",
    "icao": "KHDN",
    "name": "Yampa Valley Regional",
    "city": "Hayden",
    "state": "CO",
    "lat": 40.4812,
    "lng": -107.2178,
    "timezone": "America/Denver",
    "size": "nonhub",
    "annual_pax": 200000
  },
  {
    "iata": "HLN",
    "icao": "KHLN",
    "name": "Helena Regional",
    "city": "Helena",
    "state": "MT",
    "lat": 46.6068,
    "lng": -111.9827,
    "timezone": "America/Los_Angeles",
    "size": "nonhub",
    "annual_pax": 200000
  },
  {
    "iata": "LBE",
    "icao": "KLBE",
    "name": "Arnold Palmer Regional",
    "city": "Latrobe",
    "state": "PA",
    "lat": 40.276,
    "lng": -79.4048,
    "timezone": "America/New_York",
    "size": "nonhub",
    "annual_pax": 200000
  },
  {
    "iata": "MGM",
    "icao": "KMGM",
    "name": "Montgomery Regional",
    "city": "Montgomery",
    "state": "AL",
    "lat": 32.3006,
    "lng": -86.394,
    "timezone": "America/New_York",
    "size": "nonhub",
    "annual_pax": 200000
  },
  {
    "iata": "MOT",
    "icao": "KMOT",
    "name": "Minot International",
    "city": "Minot",
    "state": "ND",
    "lat": 48.2594,
    "lng": -101.2803,
    "timezone": "America/Chicago",
    "size": "nonhub",
    "annual_pax": 200000
  },
  {
    "iata": "USA",
    "icao": "KUSA",
    "name": "Concord-Padgett Regional",
    "city": "Concord",
    "state": "NC",
    "lat": 35.3877,
    "lng": -80.7091,
    "timezone": "America/New_York",
    "size": "nonhub",
    "annual_pax": 200000
  },
  {
    "iata": "YUM",
    "icao": "KYUM",
    "name": "Yuma International",
    "city": "Yuma",
    "state": "AZ",
    "lat": 32.6566,
    "lng": -114.606,
    "timezone": "America/Los_Angeles",
    "size": "nonhub",
    "annual_pax": 200000
  },
  {
    "iata": "ACV",
    "icao": "KACV",
    "name": "Arcata-Eureka",
    "city": "Arcata",
    "state": "CA",
    "lat": 40.9781,
    "lng": -124.1086,
    "timezone": "America/Los_Angeles",
    "size": "nonhub",
    "annual_pax": 200000
  },
  {
    "iata": "BFL",
    "icao": "KBFL",
    "name": "Meadows Field",
    "city": "Bakersfield",
    "state": "CA",
    "lat": 35.4336,
    "lng": -119.0568,
    "timezone": "America/Los_Angeles",
    "size": "nonhub",
    "annual_pax": 200000
  },
  {
    "iata": "CLL",
    "icao": "KCLL",
    "name": "Easterwood Field",
    "city": "College Station",
    "state": "TX",
    "lat": 30.5886,
    "lng": -96.3638,
    "timezone": "America/Chicago",
    "size": "nonhub",
    "annual_pax": 200000
  },
  {
    "iata": "MBS",
    "icao": "KMBS",
    "name": "MBS International",
    "city": "Saginaw",
    "state": "MI",
    "lat": 43.5329,
    "lng": -84.0796,
    "timezone": "America/New_York",
    "size": "nonhub",
    "annual_pax": 200000
  },
  {
    "iata": "SUN",
    "icao": "KSUN",
    "name": "Friedman Memorial",
    "city": "Hailey",
    "state": "ID",
    "lat": 43.5044,
    "lng": -114.2962,
    "timezone": "America/Los_Angeles",
    "size": "nonhub",
    "annual_pax": 200000
  },
  {
    "iata": "ABI",
    "icao": "KABI",
    "name": "Abilene Regional",
    "city": "Abilene",
    "state": "TX",
    "lat": 32.4113,
    "lng": -99.6819,
    "timezone": "America/Chicago",
    "size": "nonhub",
    "annual_pax": 150000
  },
  {
    "iata": "BET",
    "icao": "PAET",
    "name": "Bethel",
    "city": "Bethel",
    "state": "AK",
    "lat": 60.7798,
    "lng": -161.838,
    "timezone": "America/Anchorage",
    "size": "nonhub",
    "annual_pax": 150000
  },
  {
    "iata": "ERI",
    "icao": "KERI",
    "name": "Erie International",
    "city": "Erie",
    "state": "PA",
    "lat": 42.0831,
    "lng": -80.1762,
    "timezone": "America/New_York",
    "size": "nonhub",
    "annual_pax": 150000
  },
  {
    "iata": "PBG",
    "icao": "KPBG",
    "name": "Plattsburgh International",
    "city": "Plattsburgh",
    "state": "NY",
    "lat": 44.6509,
    "lng": -73.4681,
    "timezone": "America/New_York",
    "size": "nonhub",
    "annual_pax": 150000
  },
  {
    "iata": "CPR",
    "icao": "KCPR",
    "name": "Casper/Natrona County International",
    "city": "Casper",
    "state": "WY",
    "lat": 42.908,
    "lng": -106.4644,
    "timezone": "America/Denver",
    "size": "nonhub",
    "annual_pax": 120000
  },
  {
    "iata": "GFK",
    "icao": "KGFK",
    "name": "Grand Forks International",
    "city": "Grand Forks",
    "state": "ND",
    "lat": 47.9493,
    "lng": -97.1761,
    "timezone": "America/Chicago",
    "size": "nonhub",
    "annual_pax": 120000
  },
  {
    "iata": "ADQ",
    "icao": "PADQ",
    "name": "Kodiak",
    "city": "Kodiak",
    "state": "AK",
    "lat": 57.75,
    "lng": -152.4938,
    "timezone": "America/Anchorage",
    "size": "nonhub",
    "annual_pax": 100000
  },
  {
    "iata": "BGM",
    "icao": "KBGM",
    "name": "Greater Binghamton",
    "city": "Binghamton",
    "state": "NY",
    "lat": 42.2087,
    "lng": -75.9798,
    "timezone": "America/New_York",
    "size": "nonhub",
    "annual_pax": 100000
  },
  {
    "iata": "CLD",
    "icao": "KCLD",
    "name": "McClellan-Palomar",
    "city": "Carlsbad",
    "state": "CA",
    "lat": 33.1283,
    "lng": -117.2803,
    "timezone": "America/Los_Angeles",
    "size": "nonhub",
    "annual_pax": 100000
  },
  {
    "iata": "COU",
    "icao": "KCOU",
    "name": "Columbia Regional",
    "city": "Columbia",
    "state": "MO",
    "lat": 38.8181,
    "lng": -92.2196,
    "timezone": "America/Chicago",
    "size": "nonhub",
    "annual_pax": 100000
  },
  {
    "iata": "ELM",
    "icao": "KELM",
    "name": "Elmira/Corning Regional",
    "city": "Elmira",
    "state": "NY",
    "lat": 42.1599,
    "lng": -76.8916,
    "timezone": "America/New_York",
    "size": "nonhub",
    "annual_pax": 100000
  },
  {
    "iata": "EWN",
    "icao": "KEWN",
    "name": "Coastal Carolina Regional",
    "city": "New Bern",
    "state": "NC",
    "lat": 35.073,
    "lng": -77.0429,
    "timezone": "America/New_York",
    "size": "nonhub",
    "annual_pax": 100000
  },
  {
    "iata": "FLG",
    "icao": "KFLG",
    "name": "Flagstaff Pulliam",
    "city": "Flagstaff",
    "state": "AZ",
    "lat": 35.1385,
    "lng": -111.6711,
    "timezone": "America/Los_Angeles",
    "size": "nonhub",
    "annual_pax": 100000
  },
  {
    "iata": "ITH",
    "icao": "KITH",
    "name": "Ithaca Tompkins International",
    "city": "Ithaca",
    "state": "NY",
    "lat": 42.491,
    "lng": -76.4584,
    "timezone": "America/New_York",
    "size": "nonhub",
    "annual_pax": 100000
  },
  {
    "iata": "LCH",
    "icao": "KLCH",
    "name": "Lake Charles Regional",
    "city": "Lake Charles",
    "state": "LA",
    "lat": 30.1261,
    "lng": -93.2234,
    "timezone": "America/Chicago",
    "size": "nonhub",
    "annual_pax": 100000
  },
  {
    "iata": "LRD",
    "icao": "KLRD",
    "name": "Laredo International",
    "city": "Laredo",
    "state": "TX",
    "lat": 27.5438,
    "lng": -99.4616,
    "timezone": "America/Chicago",
    "size": "nonhub",
    "annual_pax": 100000
  },
  {
    "iata": "LSE",
    "icao": "KLSE",
    "name": "La Crosse Regional",
    "city": "La Crosse",
    "state": "WI",
    "lat": 43.8793,
    "lng": -91.2567,
    "timezone": "America/Chicago",
    "size": "nonhub",
    "annual_pax": 100000
  },
  {
    "iata": "MLU",
    "icao": "KMLU",
    "name": "Monroe Regional",
    "city": "Monroe",
    "state": "LA",
    "lat": 32.5109,
    "lng": -92.0376,
    "timezone": "America/Chicago",
    "size": "nonhub",
    "annual_pax": 100000
  },
  {
    "iata": "MVY",
    "icao": "KMVY",
    "name": "Martha's Vineyard",
    "city": "Vineyard Haven",
    "state": "MA",
    "lat": 41.3934,
    "lng": -70.6143,
    "timezone": "America/New_York",
    "size": "nonhub",
    "annual_pax": 100000
  },
  {
    "iata": "OAJ",
    "icao": "KOAJ",
    "name": "Albert J. Ellis",
    "city": "Jacksonville",
    "state": "NC",
    "lat": 34.8292,
    "lng": -77.6121,
    "timezone": "America/New_York",
    "size": "nonhub",
    "annual_pax": 100000
  },
  {
    "iata": "RFD",
    "icao": "KRFD",
    "name": "Chicago Rockford International",
    "city": "Rockford",
    "state": "IL",
    "lat": 42.1954,
    "lng": -89.0972,
    "timezone": "America/Chicago",
    "size": "nonhub",
    "annual_pax": 100000
  },
  {
    "iata": "SCE",
    "icao": "KSCE",
    "name": "University Park",
    "city": "State College",
    "state": "PA",
    "lat": 40.8493,
    "lng": -77.8487,
    "timezone": "America/New_York",
    "size": "nonhub",
    "annual_pax": 100000
  },
  {
    "iata": "SIT",
    "icao": "PAIT",
    "name": "Sitka Rocky Gutierrez",
    "city": "Sitka",
    "state": "AK",
    "lat": 57.0471,
    "lng": -135.3616,
    "timezone": "America/Anchorage",
    "size": "nonhub",
    "annual_pax": 100000
  },
  {
    "iata": "YKM",
    "icao": "KYKM",
    "name": "Yakima Air Terminal",
    "city": "Yakima",
    "state": "WA",
    "lat": 46.5682,
    "lng": -120.5441,
    "timezone": "America/Los_Angeles",
    "size": "nonhub",
    "annual_pax": 100000
  },
  {
    "iata": "ACT",
    "icao": "KACT",
    "name": "Waco Regional",
    "city": "Waco",
    "state": "TX",
    "lat": 31.6113,
    "lng": -97.2305,
    "timezone": "America/Chicago",
    "size": "nonhub",
    "annual_pax": 80000
  },
  {
    "iata": "BQK",
    "icao": "KBQK",
    "name": "Brunswick Golden Isles",
    "city": "Brunswick",
    "state": "GA",
    "lat": 31.2588,
    "lng": -81.4665,
    "timezone": "America/New_York",
    "size": "nonhub",
    "annual_pax": 80000
  },
  {
    "iata": "EAU",
    "icao": "KEAU",
    "name": "Chippewa Valley Regional",
    "city": "Eau Claire",
    "state": "WI",
    "lat": 44.8658,
    "lng": -91.4843,
    "timezone": "America/Chicago",
    "size": "nonhub",
    "annual_pax": 80000
  },
  {
    "iata": "PPG",
    "icao": "PGPG",
    "name": "Pago Pago International",
    "city": "Pago Pago",
    "state": "AS",
    "lat": -14.331,
    "lng": -170.7105,
    "timezone": "Pacific/Samoa",
    "size": "nonhub",
    "annual_pax": 80000
  },
  {
    "iata": "TWF",
    "icao": "KTWF",
    "name": "Magic Valley Regional",
    "city": "Twin Falls",
    "state": "ID",
    "lat": 42.4818,
    "lng": -114.4877,
    "timezone": "America/Los_Angeles",
    "size": "nonhub",
    "annual_pax": 80000
  },
  {
    "iata": "HTS",
    "icao": "KHTS",
    "name": "Tri-State/Milton J. Ferguson Field",
    "city": "Huntington",
    "state": "WV",
    "lat": 38.3667,
    "lng": -82.558,
    "timezone": "America/New_York",
    "size": "nonhub",
    "annual_pax": 80000
  },
  {
    "iata": "OME",
    "icao": "PAME",
    "name": "Nome",
    "city": "Nome",
    "state": "AK",
    "lat": 64.5122,
    "lng": -165.4453,
    "timezone": "America/Anchorage",
    "size": "nonhub",
    "annual_pax": 80000
  },
  {
    "iata": "SCC",
    "icao": "PACC",
    "name": "Deadhorse/Prudhoe Bay",
    "city": "Deadhorse",
    "state": "AK",
    "lat": 70.1947,
    "lng": -148.4652,
    "timezone": "America/Anchorage",
    "size": "nonhub",
    "annual_pax": 80000
  },
  {
    "iata": "GUC",
    "icao": "KGUC",
    "name": "Gunnison-Crested Butte Regional",
    "city": "Gunnison",
    "state": "CO",
    "lat": 38.5339,
    "lng": -106.9332,
    "timezone": "America/Denver",
    "size": "nonhub",
    "annual_pax": 60000
  },
  {
    "iata": "LYH",
    "icao": "KLYH",
    "name": "Lynchburg Regional",
    "city": "Lynchburg",
    "state": "VA",
    "lat": 37.3267,
    "lng": -79.2004,
    "timezone": "America/New_York",
    "size": "nonhub",
    "annual_pax": 60000
  },
  {
    "iata": "ABR",
    "icao": "KABR",
    "name": "Aberdeen Regional",
    "city": "Aberdeen",
    "state": "SD",
    "lat": 45.4491,
    "lng": -98.4218,
    "timezone": "America/Chicago",
    "size": "nonhub",
    "annual_pax": 50000
  },
  {
    "iata": "ALO",
    "icao": "KALO",
    "name": "Waterloo Regional",
    "city": "Waterloo",
    "state": "IA",
    "lat": 42.5571,
    "lng": -92.4003,
    "timezone": "America/Chicago",
    "size": "nonhub",
    "annual_pax": 50000
  },
  {
    "iata": "COD",
    "icao": "KCOD",
    "name": "Yellowstone Regional",
    "city": "Cody",
    "state": "WY",
    "lat": 44.5202,
    "lng": -109.0238,
    "timezone": "America/Denver",
    "size": "nonhub",
    "annual_pax": 50000
  },
  {
    "iata": "DHN",
    "icao": "KDHN",
    "name": "Dothan Regional",
    "city": "Dothan",
    "state": "AL",
    "lat": 31.3214,
    "lng": -85.4497,
    "timezone": "America/New_York",
    "size": "nonhub",
    "annual_pax": 50000
  },
  {
    "iata": "GTR",
    "icao": "KGTR",
    "name": "Golden Triangle Regional",
    "city": "Columbus",
    "state": "MS",
    "lat": 33.4503,
    "lng": -88.5914,
    "timezone": "America/Chicago",
    "size": "nonhub",
    "annual_pax": 50000
  },
  {
    "iata": "ILG",
    "icao": "KILG",
    "name": "Wilmington",
    "city": "Wilmington",
    "state": "DE",
    "lat": 39.6787,
    "lng": -75.6065,
    "timezone": "America/New_York",
    "size": "nonhub",
    "annual_pax": 50000
  },
  {
    "iata": "ISN",
    "icao": "KISN",
    "name": "Sloulin Field International",
    "city": "Williston",
    "state": "ND",
    "lat": 48.1779,
    "lng": -103.6424,
    "timezone": "America/Chicago",
    "size": "nonhub",
    "annual_pax": 50000
  },
  {
    "iata": "PIH",
    "icao": "KPIH",
    "name": "Pocatello Regional",
    "city": "Pocatello",
    "state": "ID",
    "lat": 42.9098,
    "lng": -112.596,
    "timezone": "America/Los_Angeles",
    "size": "nonhub",
    "annual_pax": 50000
  },
  {
    "iata": "PLN",
    "icao": "KPLN",
    "name": "Pellston Regional",
    "city": "Pellston",
    "state": "MI",
    "lat": 45.5709,
    "lng": -84.7967,
    "timezone": "America/New_York",
    "size": "nonhub",
    "annual_pax": 50000
  },
  {
    "iata": "RDD",
    "icao": "KRDD",
    "name": "Redding Municipal",
    "city": "Redding",
    "state": "CA",
    "lat": 40.509,
    "lng": -122.2934,
    "timezone": "America/Los_Angeles",
    "size": "nonhub",
    "annual_pax": 50000
  },
  {
    "iata": "SBY",
    "icao": "KSBY",
    "name": "Salisbury-Ocean City Wicomico Regional",
    "city": "Salisbury",
    "state": "MD",
    "lat": 38.3405,
    "lng": -75.5103,
    "timezone": "America/New_York",
    "size": "nonhub",
    "annual_pax": 50000
  },
  {
    "iata": "SUX",
    "icao": "KSUX",
    "name": "Sioux Gateway",
    "city": "Sioux City",
    "state": "IA",
    "lat": 42.4026,
    "lng": -96.3844,
    "timezone": "America/Chicago",
    "size": "nonhub",
    "annual_pax": 50000
  },
  {
    "iata": "EAT",
    "icao": "KEAT",
    "name": "Pangborn Memorial",
    "city": "Wenatchee",
    "state": "WA",
    "lat": 47.3985,
    "lng": -120.2069,
    "timezone": "America/Los_Angeles",
    "size": "nonhub",
    "annual_pax": 50000
  },
  {
    "iata": "OTZ",
    "icao": "PATZ",
    "name": "Ralph Wien Memorial",
    "city": "Kotzebue",
    "state": "AK",
    "lat": 66.8847,
    "lng": -162.5985,
    "timezone": "America/Anchorage",
    "size": "nonhub",
    "annual_pax": 50000
  },
  {
    "iata": "SJT",
    "icao": "KSJT",
    "name": "San Angelo Regional",
    "city": "San Angelo",
    "state": "TX",
    "lat": 31.3577,
    "lng": -100.4963,
    "timezone": "America/Chicago",
    "size": "nonhub",
    "annual_pax": 50000
  },
  {
    "iata": "BPT",
    "icao": "KBPT",
    "name": "Jack Brooks Regional",
    "city": "Beaumont",
    "state": "TX",
    "lat": 29.9508,
    "lng": -94.0207,
    "timezone": "America/Chicago",
    "size": "nonhub",
    "annual_pax": 40000
  },
  {
    "iata": "CMX",
    "icao": "KCMX",
    "name": "Houghton County Memorial",
    "city": "Hancock",
    "state": "MI",
    "lat": 47.1684,
    "lng": -88.4891,
    "timezone": "America/Chicago",
    "size": "nonhub",
    "annual_pax": 40000
  },
  {
    "iata": "FLO",
    "icao": "KFLO",
    "name": "Florence Regional",
    "city": "Florence",
    "state": "SC",
    "lat": 34.1854,
    "lng": -79.7239,
    "timezone": "America/New_York",
    "size": "nonhub",
    "annual_pax": 40000
  },
  {
    "iata": "LWS",
    "icao": "KLWS",
    "name": "Lewiston-Nez Perce County",
    "city": "Lewiston",
    "state": "ID",
    "lat": 46.3745,
    "lng": -117.0154,
    "timezone": "America/Los_Angeles",
    "size": "nonhub",
    "annual_pax": 40000
  },
  {
    "iata": "MHK",
    "icao": "KMHK",
    "name": "Manhattan Regional",
    "city": "Manhattan",
    "state": "KS",
    "lat": 39.141,
    "lng": -96.6708,
    "timezone": "America/Chicago",
    "size": "nonhub",
    "annual_pax": 40000
  },
  {
    "iata": "MMH",
    "icao": "KMMH",
    "name": "Mammoth Yosemite",
    "city": "Mammoth Lakes",
    "state": "CA",
    "lat": 37.6241,
    "lng": -118.8378,
    "timezone": "America/Los_Angeles",
    "size": "nonhub",
    "annual_pax": 40000
  },
  {
    "iata": "SPS",
    "icao": "KSPS",
    "name": "Wichita Falls Regional/Sheppard AFB",
    "city": "Wichita Falls",
    "state": "TX",
    "lat": 33.9888,
    "lng": -98.4919,
    "timezone": "America/Chicago",
    "size": "nonhub",
    "annual_pax": 40000
  },
  {
    "iata": "AKN",
    "icao": "PAKN",
    "name": "King Salmon",
    "city": "King Salmon",
    "state": "AK",
    "lat": 58.6768,
    "lng": -156.6492,
    "timezone": "America/Anchorage",
    "size": "nonhub",
    "annual_pax": 30000
  },
  {
    "iata": "APN",
    "icao": "KAPN",
    "name": "Alpena County Regional",
    "city": "Alpena",
    "state": "MI",
    "lat": 45.0781,
    "lng": -83.5603,
    "timezone": "America/New_York",
    "size": "nonhub",
    "annual_pax": 30000
  },
  {
    "iata": "ART",
    "icao": "KART",
    "name": "Watertown International",
    "city": "Watertown",
    "state": "NY",
    "lat": 43.9919,
    "lng": -76.0217,
    "timezone": "America/New_York",
    "size": "nonhub",
    "annual_pax": 30000
  },
  {
    "iata": "BRD",
    "icao": "KBRD",
    "name": "Brainerd Lakes Regional",
    "city": "Brainerd",
    "state": "MN",
    "lat": 46.3983,
    "lng": -94.1382,
    "timezone": "America/Chicago",
    "size": "nonhub",
    "annual_pax": 30000
  },
  {
    "iata": "CIU",
    "icao": "KCIU",
    "name": "Chippewa County International",
    "city": "Sault Ste. Marie",
    "state": "MI",
    "lat": 46.2508,
    "lng": -84.4724,
    "timezone": "America/New_York",
    "size": "nonhub",
    "annual_pax": 30000
  },
  {
    "iata": "CKB",
    "icao": "KCKB",
    "name": "North Central West Virginia",
    "city": "Clarksburg",
    "state": "WV",
    "lat": 39.2966,
    "lng": -80.2281,
    "timezone": "America/New_York",
    "size": "nonhub",
    "annual_pax": 30000
  },
  {
    "iata": "CNY",
    "icao": "KCNY",
    "name": "Canyonlands Field",
    "city": "Moab",
    "state": "UT",
    "lat": 38.7549,
    "lng": -109.7543,
    "timezone": "America/Denver",
    "size": "nonhub",
    "annual_pax": 30000
  },
  {
    "iata": "DIK",
    "icao": "KDIK",
    "name": "Dickinson Theodore Roosevelt Regional",
    "city": "Dickinson",
    "state": "ND",
    "lat": 46.7974,
    "lng": -102.8019,
    "timezone": "America/Chicago",
    "size": "nonhub",
    "annual_pax": 30000
  },
  {
    "iata": "EKO",
    "icao": "KEKO",
    "name": "Elko Regional",
    "city": "Elko",
    "state": "NV",
    "lat": 40.8249,
    "lng": -115.7917,
    "timezone": "America/Los_Angeles",
    "size": "nonhub",
    "annual_pax": 30000
  },
  {
    "iata": "GGG",
    "icao": "KGGG",
    "name": "East Texas Regional",
    "city": "Longview",
    "state": "TX",
    "lat": 32.384,
    "lng": -94.7115,
    "timezone": "America/Chicago",
    "size": "nonhub",
    "annual_pax": 30000
  },
  {
    "iata": "HIB",
    "icao": "KHIB",
    "name": "Range Regional",
    "city": "Hibbing",
    "state": "MN",
    "lat": 47.3866,
    "lng": -92.839,
    "timezone": "America/Chicago",
    "size": "nonhub",
    "annual_pax": 30000
  },
  {
    "iata": "LAW",
    "icao": "KLAW",
    "name": "Lawton-Fort Sill Regional",
    "city": "Lawton",
    "state": "OK",
    "lat": 34.5677,
    "lng": -98.4166,
    "timezone": "America/Chicago",
    "size": "nonhub",
    "annual_pax": 30000
  },
  {
    "iata": "OTH",
    "icao": "KOTH",
    "name": "Southwest Oregon Regional",
    "city": "North Bend",
    "state": "OR",
    "lat": 43.4171,
    "lng": -124.246,
    "timezone": "America/Los_Angeles",
    "size": "nonhub",
    "annual_pax": 30000
  },
  {
    "iata": "RHI",
    "icao": "KRHI",
    "name": "Rhinelander-Oneida County",
    "city": "Rhinelander",
    "state": "WI",
    "lat": 45.6312,
    "lng": -89.4675,
    "timezone": "America/Chicago",
    "size": "nonhub",
    "annual_pax": 30000
  },
  {
    "iata": "STC",
    "icao": "KSTC",
    "name": "St. Cloud Regional",
    "city": "St. Cloud",
    "state": "MN",
    "lat": 45.5466,
    "lng": -94.0599,
    "timezone": "America/Chicago",
    "size": "nonhub",
    "annual_pax": 30000
  },
  {
    "iata": "TXK",
    "icao": "KTXK",
    "name": "Texarkana Regional",
    "city": "Texarkana",
    "state": "AR",
    "lat": 33.4537,
    "lng": -93.991,
    "timezone": "America/Chicago",
    "size": "nonhub",
    "annual_pax": 30000
  },
  {
    "iata": "VLD",
    "icao": "KVLD",
    "name": "Valdosta Regional",
    "city": "Valdosta",
    "state": "GA",
    "lat": 30.7825,
    "lng": -83.2767,
    "timezone": "America/New_York",
    "size": "nonhub",
    "annual_pax": 30000
  },
  {
    "iata": "UST",
    "icao": "KUST",
    "name": "Northeast Florida Regional",
    "city": "St. Augustine",
    "state": "FL",
    "lat": 29.9592,
    "lng": -81.3398,
    "timezone": "America/New_York",
    "size": "nonhub",
    "annual_pax": 30000
  },
  {
    "iata": "BKG",
    "icao": "KBKG",
    "name": "Branson",
    "city": "Branson",
    "state": "MO",
    "lat": 36.5319,
    "lng": -93.2006,
    "timezone": "America/Chicago",
    "size": "nonhub",
    "annual_pax": 20000
  },
  {
    "iata": "CDC",
    "icao": "KCDC",
    "name": "Cedar City Regional",
    "city": "Cedar City",
    "state": "UT",
    "lat": 37.701,
    "lng": -113.0988,
    "timezone": "America/Los_Angeles",
    "size": "nonhub",
    "annual_pax": 20000
  },
  {
    "iata": "CGI",
    "icao": "KCGI",
    "name": "Cape Girardeau Regional",
    "city": "Cape Girardeau",
    "state": "MO",
    "lat": 37.2253,
    "lng": -89.5708,
    "timezone": "America/Chicago",
    "size": "nonhub",
    "annual_pax": 20000
  },
  {
    "iata": "GCC",
    "icao": "KGCC",
    "name": "Gillette-Campbell County",
    "city": "Gillette",
    "state": "WY",
    "lat": 44.3489,
    "lng": -105.5394,
    "timezone": "America/Denver",
    "size": "nonhub",
    "annual_pax": 20000
  },
  {
    "iata": "GRI",
    "icao": "KGRI",
    "name": "Central Nebraska Regional",
    "city": "Grand Island",
    "state": "NE",
    "lat": 40.9675,
    "lng": -98.3096,
    "timezone": "America/Chicago",
    "size": "nonhub",
    "annual_pax": 20000
  },
  {
    "iata": "JLN",
    "icao": "KJLN",
    "name": "Joplin Regional",
    "city": "Joplin",
    "state": "MO",
    "lat": 37.1518,
    "lng": -94.4983,
    "timezone": "America/Chicago",
    "size": "nonhub",
    "annual_pax": 20000
  },
  {
    "iata": "MEI",
    "icao": "KMEI",
    "name": "Key Field",
    "city": "Meridian",
    "state": "MS",
    "lat": 32.3326,
    "lng": -88.7519,
    "timezone": "America/Chicago",
    "size": "nonhub",
    "annual_pax": 20000
  },
  {
    "iata": "PAH",
    "icao": "KPAH",
    "name": "Barkley Regional",
    "city": "Paducah",
    "state": "KY",
    "lat": 37.0603,
    "lng": -88.7738,
    "timezone": "America/Chicago",
    "size": "nonhub",
    "annual_pax": 20000
  },
  {
    "iata": "PSG",
    "icao": "PASG",
    "name": "Petersburg James A. Johnson",
    "city": "Petersburg",
    "state": "AK",
    "lat": 56.8017,
    "lng": -132.9453,
    "timezone": "America/Anchorage",
    "size": "nonhub",
    "annual_pax": 20000
  },
  {
    "iata": "RKS",
    "icao": "KRKS",
    "name": "Rock Springs-Sweetwater County",
    "city": "Rock Springs",
    "state": "WY",
    "lat": 41.5942,
    "lng": -109.0652,
    "timezone": "America/Denver",
    "size": "nonhub",
    "annual_pax": 20000
  },
  {
    "iata": "HGR",
    "icao": "KHGR",
    "name": "Hagerstown Regional",
    "city": "Hagerstown",
    "state": "MD",
    "lat": 39.7079,
    "lng": -77.7295,
    "timezone": "America/New_York",
    "size": "nonhub",
    "annual_pax": 20000
  },
  {
    "iata": "SHD",
    "icao": "KSHD",
    "name": "Shenandoah Valley Regional",
    "city": "Staunton",
    "state": "VA",
    "lat": 38.2638,
    "lng": -79.024,
    "timezone": "America/New_York",
    "size": "nonhub",
    "annual_pax": 20000
  },
  {
    "iata": "ATY",
    "icao": "KATY",
    "name": "Watertown Regional",
    "city": "Watertown",
    "state": "SD",
    "lat": 44.914,
    "lng": -97.1547,
    "timezone": "America/Chicago",
    "size": "nonhub",
    "annual_pax": 15000
  },
  {
    "iata": "ESC",
    "icao": "KESC",
    "name": "Delta County",
    "city": "Escanaba",
    "state": "MI",
    "lat": 45.7227,
    "lng": -87.0937,
    "timezone": "America/New_York",
    "size": "nonhub",
    "annual_pax": 15000
  },
  {
    "iata": "IMT",
    "icao": "KIMT",
    "name": "Ford",
    "city": "Iron Mountain",
    "state": "MI",
    "lat": 45.8184,
    "lng": -88.1145,
    "timezone": "America/Chicago",
    "size": "nonhub",
    "annual_pax": 15000
  },
  {
    "iata": "INL",
    "icao": "KINL",
    "name": "Falls International",
    "city": "International Falls",
    "state": "MN",
    "lat": 48.5662,
    "lng": -93.4031,
    "timezone": "America/Chicago",
    "size": "nonhub",
    "annual_pax": 15000
  },
  {
    "iata": "LWB",
    "icao": "KLWB",
    "name": "Greenbrier Valley",
    "city": "Lewisburg",
    "state": "WV",
    "lat": 37.8583,
    "lng": -80.3995,
    "timezone": "America/New_York",
    "size": "nonhub",
    "annual_pax": 15000
  },
  {
    "iata": "MKG",
    "icao": "KMKG",
    "name": "Muskegon County",
    "city": "Muskegon",
    "state": "MI",
    "lat": 43.1695,
    "lng": -86.2382,
    "timezone": "America/New_York",
    "size": "nonhub",
    "annual_pax": 15000
  },
  {
    "iata": "PIB",
    "icao": "KPIB",
    "name": "Hattiesburg-Laurel Regional",
    "city": "Hattiesburg",
    "state": "MS",
    "lat": 31.4671,
    "lng": -89.3371,
    "timezone": "America/Chicago",
    "size": "nonhub",
    "annual_pax": 15000
  },
  {
    "iata": "PIR",
    "icao": "KPIR",
    "name": "Pierre Regional",
    "city": "Pierre",
    "state": "SD",
    "lat": 44.3827,
    "lng": -100.286,
    "timezone": "America/Chicago",
    "size": "nonhub",
    "annual_pax": 15000
  },
  {
    "iata": "RIW",
    "icao": "KRIW",
    "name": "Riverton Regional",
    "city": "Riverton",
    "state": "WY",
    "lat": 43.0642,
    "lng": -108.4599,
    "timezone": "America/Denver",
    "size": "nonhub",
    "annual_pax": 15000
  },
  {
    "iata": "CLM",
    "icao": "KCLM",
    "name": "William R. Fairchild International",
    "city": "Port Angeles",
    "state": "WA",
    "lat": 48.1202,
    "lng": -123.4997,
    "timezone": "America/Los_Angeles",
    "size": "nonhub",
    "annual_pax": 10000
  },
  {
    "iata": "DRT",
    "icao": "KDRT",
    "name": "Del Rio International",
    "city": "Del Rio",
    "state": "TX",
    "lat": 29.3722,
    "lng": -100.9273,
    "timezone": "America/Chicago",
    "size": "nonhub",
    "annual_pax": 10000
  },
  {
    "iata": "EAR",
    "icao": "KEAR",
    "name": "Kearney Regional",
    "city": "Kearney",
    "state": "NE",
    "lat": 40.727,
    "lng": -99.0068,
    "timezone": "America/Chicago",
    "size": "nonhub",
    "annual_pax": 10000
  },
  {
    "iata": "GCK",
    "icao": "KGCK",
    "name": "Garden City Regional",
    "city": "Garden City",
    "state": "KS",
    "lat": 37.9275,
    "lng": -100.7244,
    "timezone": "America/Chicago",
    "size": "nonhub",
    "annual_pax": 10000
  },
  {
    "iata": "HYS",
    "icao": "KHYS",
    "name": "Hays Regional",
    "city": "Hays",
    "state": "KS",
    "lat": 38.8422,
    "lng": -99.2732,
    "timezone": "America/Chicago",
    "size": "nonhub",
    "annual_pax": 10000
  },
  {
    "iata": "LAR",
    "icao": "KLAR",
    "name": "Laramie Regional",
    "city": "Laramie",
    "state": "WY",
    "lat": 41.3121,
    "lng": -105.675,
    "timezone": "America/Denver",
    "size": "nonhub",
    "annual_pax": 10000
  },
  {
    "iata": "LBF",
    "icao": "KLBF",
    "name": "North Platte Regional",
    "city": "North Platte",
    "state": "NE",
    "lat": 41.1262,
    "lng": -100.6837,
    "timezone": "America/Chicago",
    "size": "nonhub",
    "annual_pax": 10000
  },
  {
    "iata": "MCW",
    "icao": "KMCW",
    "name": "Mason City Municipal",
    "city": "Mason City",
    "state": "IA",
    "lat": 43.1578,
    "lng": -93.3313,
    "timezone": "America/Chicago",
    "size": "nonhub",
    "annual_pax": 10000
  },
  {
    "iata": "OWB",
    "icao": "KOWB",
    "name": "Owensboro-Daviess County Regional",
    "city": "Owensboro",
    "state": "KY",
    "lat": 37.7401,
    "lng": -87.1668,
    "timezone": "America/New_York",
    "size": "nonhub",
    "annual_pax": 10000
  },
  {
    "iata": "ROW",
    "icao": "KROW",
    "name": "Roswell Air Center",
    "city": "Roswell",
    "state": "NM",
    "lat": 33.3016,
    "lng": -104.5307,
    "timezone": "America/Denver",
    "size": "nonhub",
    "annual_pax": 10000
  },
  {
    "iata": "VCT",
    "icao": "KVCT",
    "name": "Victoria Regional",
    "city": "Victoria",
    "state": "TX",
    "lat": 28.8526,
    "lng": -96.9185,
    "timezone": "America/Chicago",
    "size": "nonhub",
    "annual_pax": 10000
  },
  {
    "iata": "WRG",
    "icao": "PARG",
    "name": "Wrangell",
    "city": "Wrangell",
    "state": "AK",
    "lat": 56.4843,
    "lng": -132.3698,
    "timezone": "America/Anchorage",
    "size": "nonhub",
    "annual_pax": 10000
  },
  {
    "iata": "WYS",
    "icao": "KWYS",
    "name": "Yellowstone",
    "city": "West Yellowstone",
    "state": "MT",
    "lat": 44.6884,
    "lng": -111.1176,
    "timezone": "America/Los_Angeles",
    "size": "nonhub",
    "annual_pax": 10000
  },
  {
    "iata": "GCN",
    "icao": "KGCN",
    "name": "Grand Canyon National Park",
    "city": "Grand Canyon",
    "state": "AZ",
    "lat": 35.9524,
    "lng": -112.147,
    "timezone": "America/Los_Angeles",
    "size": "nonhub",
    "annual_pax": 10000
  },
  {
    "iata": "HOB",
    "icao": "KHOB",
    "name": "Lea County Regional",
    "city": "Hobbs",
    "state": "NM",
    "lat": 32.6875,
    "lng": -103.217,
    "timezone": "America/Chicago",
    "size": "nonhub",
    "annual_pax": 10000
  },
  {
    "iata": "LNS",
    "icao": "KLNS",
    "name": "Lancaster",
    "city": "Lancaster",
    "state": "PA",
    "lat": 40.1217,
    "lng": -76.2961,
    "timezone": "America/New_York",
    "size": "nonhub",
    "annual_pax": 10000
  },
  {
    "iata": "UIN",
    "icao": "KUIN",
    "name": "Quincy Regional",
    "city": "Quincy",
    "state": "IL",
    "lat": 39.9427,
    "lng": -91.1946,
    "timezone": "America/Chicago",
    "size": "nonhub",
    "annual_pax": 10000
  },
  {
    "iata": "VEL",
    "icao": "KVEL",
    "name": "Vernal Regional",
    "city": "Vernal",
    "state": "UT",
    "lat": 40.4409,
    "lng": -109.51,
    "timezone": "America/Denver",
    "size": "nonhub",
    "annual_pax": 10000
  },
  {
    "iata": "ADK",
    "icao": "PADK",
    "name": "Adak",
    "city": "Adak",
    "state": "AK",
    "lat": 51.878,
    "lng": -176.646,
    "timezone": "America/Anchorage",
    "size": "nonhub",
    "annual_pax": 5000
  },
  {
    "iata": "DVL",
    "icao": "KDVL",
    "name": "Devils Lake Regional",
    "city": "Devils Lake",
    "state": "ND",
    "lat": 48.1142,
    "lng": -98.9088,
    "timezone": "America/Chicago",
    "size": "nonhub",
    "annual_pax": 5000
  },
  {
    "iata": "JMS",
    "icao": "KJMS",
    "name": "Jamestown Regional",
    "city": "Jamestown",
    "state": "ND",
    "lat": 46.9297,
    "lng": -98.6782,
    "timezone": "America/Chicago",
    "size": "nonhub",
    "annual_pax": 5000
  },
  {
    "iata": "LBL",
    "icao": "KLBL",
    "name": "Liberal Mid-America Regional",
    "city": "Liberal",
    "state": "KS",
    "lat": 37.0442,
    "lng": -100.96,
    "timezone": "America/Chicago",
    "size": "nonhub",
    "annual_pax": 5000
  },
  {
    "iata": "LEW",
    "icao": "KLEW",
    "name": "Auburn/Lewiston Municipal",
    "city": "Auburn",
    "state": "ME",
    "lat": 44.0485,
    "lng": -70.2835,
    "timezone": "America/New_York",
    "size": "nonhub",
    "annual_pax": 5000
  },
  {
    "iata": "OGD",
    "icao": "KOGD",
    "name": "Ogden-Hinckley",
    "city": "Ogden",
    "state": "UT",
    "lat": 41.1961,
    "lng": -112.0122,
    "timezone": "America/Los_Angeles",
    "size": "nonhub",
    "annual_pax": 5000
  },
  {
    "iata": "VIS",
    "icao": "KVIS",
    "name": "Visalia Municipal",
    "city": "Visalia",
    "state": "CA",
    "lat": 36.3187,
    "lng": -119.3929,
    "timezone": "America/Los_Angeles",
    "size": "nonhub",
    "annual_pax": 5000
  },
  {
    "iata": "YAK",
    "icao": "PAAK",
    "name": "Yakutat",
    "city": "Yakutat",
    "state": "AK",
    "lat": 59.5033,
    "lng": -139.6603,
    "timezone": "America/Anchorage",
    "size": "nonhub",
    "annual_pax": 5000
  },
  {
    "iata": "OGS",
    "icao": "KOGS",
    "name": "Ogdensburg International",
    "city": "Ogdensburg",
    "state": "NY",
    "lat": 44.6819,
    "lng": -75.4655,
    "timezone": "America/New_York",
    "size": "nonhub",
    "annual_pax": 5000
  },
  {
    "iata": "PLB",
    "icao": "KPLB",
    "name": "Clinton County",
    "city": "Plattsburgh",
    "state": "NY",
    "lat": 44.6895,
    "lng": -73.5247,
    "timezone": "America/New_York",
    "size": "nonhub",
    "annual_pax": 5000
  },
  {
    "iata": "RDG",
    "icao": "KRDG",
    "name": "Reading Regional",
    "city": "Reading",
    "state": "PA",
    "lat": 40.3785,
    "lng": -75.9652,
    "timezone": "America/New_York",
    "size": "nonhub",
    "annual_pax": 5000
  }
]
